latitude	longitude	store_name	code	location	imei
-6.48167	106.85417	Cibinong	ID	Asia/Jakarta	8630330696303481586
5.20856	-74.73584	Honda	CO	America/Bogota	8630330696303481735
17.54907	82.85749	Elamanchili	IN	Asia/Kolkata	8630330696303482022
-8.43333	114.33333	Muncar	ID	Asia/Jakarta	8630330696303481537
34.61667	135.6	Yao	JP	Asia/Tokyo	3590433799317661586
29.21399	78.95693	Kashipur	IN	Asia/Kolkata	8630330696303481321
35.06544	1.04945	Frenda	DZ	Africa/Algiers	8630330696303481784
-10.95817	-38.79084	Tucano	BR	America/Bahia	8630330696303481263
44.59445	11.04979	Castelfranco Emilia	IT	Europe/Rome	863033069630348586
51.39148	-0.29825	Surbiton	GB	Europe/London	359043379931766551
24.05979	77.40858	Leteri	IN	Asia/Kolkata	3590433799317661206
28.15112	-82.46148	Lutz	US	America/New_York	863033069630348784
50.073658	14.418540	Praha	CZ	Europe/Prague	3590433799317661594
34.14251	-118.25508	Glendale	US	America/Los_Angeles	8630330696303481586
55.82885	-4.21376	Rutherglen	GB	Europe/London	3590433799317662246
41.55838	-81.56929	Collinwood	US	America/New_York	8630330696303482451
22.10194	85.37752	Barbil	IN	Asia/Kolkata	3590433799317661172
26.67319	31.4976	Juhaynah	EG	Africa/Cairo	3590433799317661578
15.79408	104.1451	Yasothon	TH	Asia/Bangkok	359043379931766429
-8.05389	-34.88111	Recife	BR	America/Recife	8630330696303481735
54.8421	46.5813	Alatyr‚Äô	RU	Europe/Moscow	863033069630348941
55.64776	38.02486	Malakhovka	RU	Europe/Moscow	3590433799317661628
50.64336	7.2278	Bad Honnef	DE	Europe/Berlin	3590433799317661107
37.30553	120.82747	Zhuangyuan	CN	Asia/Shanghai	8630330696303481446
41.24255	-82.61573	Norwalk	US	America/New_York	8630330696303481974
33.93113	-117.54866	Norco	US	America/Los_Angeles	3590433799317662170
36.81667	117.81667	Zhoucun	CN	Asia/Shanghai	359043379931766171
37.51803	15.00913	Misterbianco	IT	Europe/Rome	359043379931766379
15.72892	120.57224	Burgos	PH	Asia/Manila	3590433799317662352
43.61062	-72.97261	Rutland	US	America/New_York	3590433799317661131
20.88197	85.83334	Bhuban	IN	Asia/Kolkata	863033069630348560
39.09112	-94.41551	Independence	US	America/Chicago	8630330696303481156
32.52515	-93.75018	Shreveport	US	America/Chicago	8630330696303481644
9.89206	43.38531	Baki	SO	Africa/Mogadishu	863033069630348644
54.48147	53.47103	Oktyabr‚Äôskiy	RU	Asia/Yekaterinburg	3590433799317661370
10.29085	105.75635	Sa Dec	VN	Asia/Ho_Chi_Minh	3590433799317662105
45.50369	11.412	Montecchio Maggiore-Alte Ceccato	IT	Europe/Rome	359043379931766759
41.8542	-87.66561	Lower West Side	US	America/Chicago	863033069630348271
-26.93366	29.24152	Standerton	ZA	Africa/Johannesburg	3590433799317662386
34.09668	-117.71978	Claremont	US	America/Los_Angeles	3590433799317661172
38.10558	-1.86343	Caravaca	ES	Europe/Madrid	863033069630348602
40.72586	8.55552	Sassari	IT	Europe/Rome	359043379931766809
41.15612	1.10687	Reus	ES	Europe/Madrid	3590433799317661222
38.58894	-89.99038	Fairview Heights	US	America/Chicago	863033069630348693
41.75338	-86.11084	Granger	US	America/Indiana/Indianapolis	3590433799317662303
55.85	37.56667	Likhobory	RU	Europe/Moscow	8630330696303482295
35.8	137.23333	Gero	JP	Asia/Tokyo	359043379931766775
-19.32556	-41.25528	Resplendor	BR	America/Sao_Paulo	863033069630348776
27.0174	49.62251	Al Jubayl	SA	Asia/Riyadh	863033069630348107
14.0823	98.19151	Dawei	MM	Asia/Yangon	863033069630348289
52.31333	6.92917	Oldenzaal	NL	Europe/Amsterdam	8630330696303482360
55.67938	12.53463	Frederiksberg	DK	Europe/Copenhagen	3590433799317661982
50.11861	-5.53715	Penzance	GB	Europe/London	359043379931766163
-32.45242	-71.23106	La Ligua	CL	America/Santiago	3590433799317662303
46.1351	-60.1831	Sydney	CA	America/Glace_Bay	3590433799317662493
59.80917	30.38167	Shushary	RU	Europe/Moscow	8630330696303481842
55.67938	12.53463	Frederiksberg	DK	Europe/Copenhagen	863033069630348784
12.12278	-61.62498	Grenville	GD	America/Grenada	8630330696303481669
24.81757	84.63445	Rafiganj	IN	Asia/Kolkata	8630330696303481107
10.31672	123.89071	Cebu City	PH	Asia/Manila	359043379931766445
58.23583	92.48278	Lesosibirsk	RU	Asia/Krasnoyarsk	8630330696303482212
37.95143	-91.77127	Rolla	US	America/Chicago	3590433799317661032
33.4425	129.96972	Karatsu	JP	Asia/Tokyo	8630330696303482352
-21.44345	-65.71875	Tupiza	BO	America/La_Paz	3590433799317661719
60.18427	24.95034	Kallio	FI	Europe/Helsinki	8630330696303482170
12.18441	18.69303	Mongo	TD	Africa/Ndjamena	863033069630348826
12.1277	78.15794	Dharmapuri	IN	Asia/Kolkata	3590433799317661941
33.54428	-84.23381	Stockbridge	US	America/New_York	359043379931766528
36.76775	2.95924	Cheraga	DZ	Africa/Algiers	8630330696303481362
-4.5833	15.16554	Kasangulu	CD	Africa/Kinshasa	359043379931766270
53.14657	140.72287	Nikolayevsk-on-Amure	RU	Asia/Vladivostok	863033069630348479
-2.90055	-79.00453	Cuenca	EC	America/Guayaquil	863033069630348651
43.11667	1.6	Pamiers	FR	Europe/Paris	8630330696303481693
34.15429	3.50309	Messaad	DZ	Africa/Algiers	3590433799317661396
33.42585	-6.00137	Oulmes	MA	Africa/Casablanca	8630330696303481842
50.20528	19.27498	Jaworzno	PL	Europe/Warsaw	8630330696303481271
56.85836	35.90057	Tver	RU	Europe/Moscow	863033069630348156
37.58105	29.26639	Serinhisar	TR	Europe/Istanbul	359043379931766759
18.51957	73.85535	Pune	IN	Asia/Kolkata	359043379931766916
55.85	37.56667	Likhobory	RU	Europe/Moscow	359043379931766684
51.04962	12.1369	Zeitz	DE	Europe/Berlin	359043379931766841
-32.45242	-71.23106	La Ligua	CL	America/Santiago	3590433799317661008
55.85	37.56667	Likhobory	RU	Europe/Moscow	3590433799317661727
38.38479	-0.76773	Novelda	ES	Europe/Madrid	8630330696303481222
68.79833	16.54165	Harstad	NO	Europe/Oslo	8630330696303481925
39.96097	-75.60804	West Chester	US	America/New_York	359043379931766239
-7.54972	110.71639	Ngemplak	ID	Asia/Jakarta	3590433799317661081
39.59611	27.02444	Edremit	TR	Europe/Istanbul	359043379931766213
48.77644	2.29026	Sceaux	FR	Europe/Paris	359043379931766122
7.83389	-72.47417	Villa del Rosario	CO	America/Bogota	3590433799317661271
17.06542	-96.72365	Oaxaca	MX	America/Mexico_City	359043379931766833
53.51684	-113.3187	Sherwood Park	CA	America/Edmonton	3590433799317661669
44.27804	-88.27205	Kaukauna	US	America/Chicago	359043379931766668
8.62261	-70.20749	Barinas	VE	America/Caracas	8630330696303482204
37.73604	-120.93549	Riverbank	US	America/Los_Angeles	359043379931766247
52.66277	-2.01111	Great Wyrley	GB	Europe/London	3590433799317661404
48.77644	2.29026	Sceaux	FR	Europe/Paris	359043379931766015
40.87329	14.43865	Somma Vesuviana	IT	Europe/Rome	3590433799317662105
41.48199	-81.79819	Lakewood	US	America/New_York	863033069630348370
54.8421	46.5813	Alatyr‚Äô	RU	Europe/Moscow	863033069630348651
52.4089	31.3237	Dobrush	BY	Europe/Minsk	359043379931766635
42.35843	-71.05977	Boston	US	America/New_York	3590433799317661214
10.63504	-85.43772	Liberia	CR	America/Costa_Rica	8630330696303481529
6.46346	-2.31938	Bibiani	GH	Africa/Accra	359043379931766643
54.60528	18.34717	Reda	PL	Europe/Warsaw	8630330696303482352
38.96372	-76.99081	Chillum	US	America/New_York	3590433799317661560
40.70995	0.57856	Amposta	ES	Europe/Madrid	863033069630348420
-38.65333	178.00417	Gisborne	NZ	Pacific/Auckland	3590433799317661412
8.88988	-79.62603	Veracruz	PA	America/Panama	863033069630348818
43.31667	-2.68333	Gernika-Lumo	ES	Europe/Madrid	863033069630348693
6.46838	-73.26022	Socorro	CO	America/Bogota	359043379931766098
34.81667	137.4	Toyokawa	JP	Asia/Tokyo	863033069630348826
-16.25	-69.08333	Yunguyo	PE	America/Lima	3590433799317662279
55.82737	-4.0573	Viewpark	GB	Europe/London	3590433799317661628
53.0233	-1.48119	Belper	GB	Europe/London	8630330696303481610
33.54428	-84.23381	Stockbridge	US	America/New_York	863033069630348784
60.2052	24.6522	Espoo	FI	Europe/Helsinki	3590433799317662188
37.31309	40.74357	Mardin	TR	Europe/Istanbul	863033069630348305
-34.28853	146.05093	Griffith	AU	Australia/Sydney	8630330696303481479
11.93381	79.82979	Puducherry	IN	Asia/Kolkata	8630330696303481669
41.24255	-82.61573	Norwalk	US	America/New_York	8630330696303481727
68.79833	16.54165	Harstad	NO	Europe/Oslo	359043379931766130
22.49396	-105.36369	Acaponeta	MX	America/Mazatlan	3590433799317661420
51.78771	56.36091	Saraktash	RU	Asia/Yekaterinburg	359043379931766361
4.73245	-74.26419	Madrid	CO	America/Bogota	863033069630348164
38.13708	41.00817	Silvan	TR	Europe/Istanbul	863033069630348768
36.19278	117.65694	Laiwu	CN	Asia/Shanghai	8630330696303481610
-1.26424	104.09701	Simpang	ID	Asia/Jakarta	863033069630348966
47.30997	8.52462	Adliswil	CH	Europe/Zurich	3590433799317661701
16.68911	98.50893	Myawadi	MM	Asia/Yangon	359043379931766783
26.18924	-98.15529	San Juan	US	America/Chicago	359043379931766577
-8.66667	-35.71667	Catende	BR	America/Recife	8630330696303481206
-24.19436	29.00974	Mokopane	ZA	Africa/Johannesburg	863033069630348529
12.25282	79.41727	Gingee	IN	Asia/Kolkata	8630330696303481818
50.20528	19.27498	Jaworzno	PL	Europe/Warsaw	863033069630348230
37.73222	115.70111	Hengshui	CN	Asia/Shanghai	8630330696303481115
37.56667	140.11667	Inawashiro	JP	Asia/Tokyo	3590433799317661123
-54.8	-68.3	Ushuaia	AR	America/Argentina/Ushuaia	359043379931766759
-22.45667	-47.53028	Santa Gertrudes	BR	America/Sao_Paulo	3590433799317661925
40.72586	8.55552	Sassari	IT	Europe/Rome	863033069630348560
60.02427	30.28491	Kolomyagi	RU	Europe/Moscow	359043379931766106
40.93333	73	Jalal-Abad	KG	Asia/Bishkek	863033069630348826
31.92923	34.86563	Ramla	IL	Asia/Jerusalem	3590433799317661545
-8.76194	-63.90389	Porto Velho	BR	America/Porto_Velho	3590433799317661503
18.42745	-67.15407	Aguadilla	PR	America/Puerto_Rico	8630330696303482428
43.32686	-2.98884	Leioa	ES	Europe/Madrid	359043379931766577
10.13361	124.84472	Maasin	PH	Asia/Manila	863033069630348941
56.03361	35.96944	Volokolamsk	RU	Europe/Moscow	8630330696303481453
45.75279	130.57211	Boli	CN	Asia/Shanghai	8630330696303482261
50.50301	13.63617	Most	CZ	Europe/Prague	863033069630348743
39.33427	-76.43941	Middle River	US	America/New_York	359043379931766841
24.28859	116.11768	Meizhou	CN	Asia/Shanghai	3590433799317661685
40.57788	-73.95958	Brighton Beach	US	America/New_York	8630330696303481594
42.64685	-5.55835	Villaquilambre	ES	Europe/Madrid	3590433799317661354
-22.9	44.53333	Sakaraha	MG	Indian/Antananarivo	863033069630348396
41.85059	-87.882	Westchester	US	America/Chicago	8630330696303481842
34.08565	74.80555	Srinagar	IN	Asia/Kolkata	863033069630348248
-27.76952	30.79165	Vryheid	ZA	Africa/Johannesburg	359043379931766981
60.97944	76.92421	Izluchinsk	RU	Asia/Yekaterinburg	863033069630348842
-7.81667	112.01667	Kediri	ID	Asia/Jakarta	863033069630348263
41.94175	123.50266	Hushitai	CN	Asia/Shanghai	8630330696303481974
0.49113	29.47306	Beni	CD	Africa/Lubumbashi	8630330696303481925
50.56149	4.69889	Gembloux	BE	Europe/Brussels	863033069630348503
9.92787	-84.13722	San Rafael	CR	America/Costa_Rica	863033069630348537
18.18158	76.03889	Osmanabad	IN	Asia/Kolkata	8630330696303481933
31.76212	-95.63079	Palestine	US	America/Chicago	863033069630348081
9.6531	124.3697	Jagna	PH	Asia/Manila	8630330696303481115
58.04254	65.27258	Tavda	RU	Asia/Yekaterinburg	3590433799317661172
37.65639	126.835	Goyang-si	KR	Asia/Seoul	8630330696303482063
22.88783	84.13864	Jashpurnagar	IN	Asia/Kolkata	8630330696303481248
39.09112	-94.41551	Independence	US	America/Chicago	3590433799317661503
37.49073	-2.77259	Baza	ES	Europe/Madrid	8630330696303481727
43.1122	12.38878	Perugia	IT	Europe/Rome	8630330696303482238
36.76639	3.47717	Boumerdas	DZ	Africa/Algiers	8630330696303482204
-21.15	46.58333	Ikalamavony	MG	Indian/Antananarivo	8630330696303481016
10.63504	-85.43772	Liberia	CR	America/Costa_Rica	8630330696303481636
43.32393	5.4584	Les Olives	FR	Europe/Paris	8630330696303482345
15.5439	73.7553	Calangute	IN	Asia/Kolkata	8630330696303481842
51.67822	33.9162	Hlukhiv	UA	Europe/Kyiv	3590433799317661867
41.55815	-73.0515	Waterbury	US	America/New_York	3590433799317661636
52.68333	0.93333	East Dereham	GB	Europe/London	359043379931766478
-4.42472	-41.45861	Pedro II	BR	America/Fortaleza	863033069630348826
47.38093	-122.23484	Kent	US	America/Los_Angeles	3590433799317662485
-36.9256	-73.02841	Chiguayante	CL	America/Santiago	8630330696303481651
35.25064	-91.73625	Searcy	US	America/Chicago	8630330696303481131
-8.43333	114.33333	Muncar	ID	Asia/Jakarta	359043379931766619
14.37395	100.48528	Bang Ban	TH	Asia/Bangkok	8630330696303481164
53.5942	25.8191	Novogrudok	BY	Europe/Minsk	3590433799317661982
29.38242	70.91106	Alipur	PK	Asia/Karachi	8630330696303481032
27.76056	-15.58602	Maspalomas	ES	Atlantic/Canary	8630330696303481610
46.65581	32.6178	Kherson	UA	Europe/Kyiv	863033069630348222
54.58048	16.86194	Ustka	PL	Europe/Warsaw	359043379931766742
41.77583	140.73667	Hakodate	JP	Asia/Tokyo	8630330696303482170
-15.675	-38.94722	Canavieiras	BR	America/Bahia	359043379931766338
36.65	138.31667	Suzaka	JP	Asia/Tokyo	8630330696303481966
8.62261	-70.20749	Barinas	VE	America/Caracas	359043379931766619
50.11861	-5.53715	Penzance	GB	Europe/London	3590433799317661545
64.5635	39.8302	Severodvinsk	RU	Europe/Moscow	863033069630348529
32.52515	-93.75018	Shreveport	US	America/Chicago	3590433799317661545
38.47917	-1.325	Jumilla	ES	Europe/Madrid	359043379931766080
65.93381	111.4834	Aykhal	RU	Asia/Yakutsk	863033069630348073
47.46657	84.87144	Zaysan	KZ	Asia/Almaty	8630330696303482113
40.93121	-73.89875	Yonkers	US	America/New_York	8630330696303481099
34.08565	74.80555	Srinagar	IN	Asia/Kolkata	8630330696303482006
33.72255	-116.37697	Palm Desert	US	America/Los_Angeles	3590433799317662410
18.87813	72.93924	Uran	IN	Asia/Kolkata	3590433799317662204
17.06542	-96.72365	Oaxaca	MX	America/Mexico_City	359043379931766171
-7.76667	35.7	Iringa	TZ	Africa/Dar_es_Salaam	863033069630348123
20.21322	-100.88023	Salvatierra	MX	America/Mexico_City	3590433799317661222
53.38333	-0.76667	Gainsborough	GB	Europe/London	863033069630348230
35.88264	-80.08199	Thomasville	US	America/New_York	359043379931766866
53.14657	140.72287	Nikolayevsk-on-Amure	RU	Asia/Vladivostok	3590433799317661743
54.03876	43.91385	Kovylkino	RU	Europe/Moscow	863033069630348008
34.61667	135.6	Yao	JP	Asia/Tokyo	359043379931766395
37.56667	140.11667	Inawashiro	JP	Asia/Tokyo	359043379931766676
38.40917	112.73333	Xinzhou	CN	Asia/Shanghai	863033069630348008
38.17492	-122.2608	American Canyon	US	America/Los_Angeles	3590433799317661511
43.83125	5.03586	Cavaillon	FR	Europe/Paris	3590433799317661420
-21.42917	-45.94722	Alfenas	BR	America/Sao_Paulo	8630330696303482238
-33.59217	-70.6996	San Bernardo	CL	America/Santiago	863033069630348461
-10.91722	-37.65	Lagarto	BR	America/Maceio	863033069630348917
28.92694	78.23456	Bachhraon	IN	Asia/Kolkata	3590433799317662014
11.86064	9.0027	Gaya	NG	Africa/Lagos	359043379931766668
11.8659	34.3869	Ar Ruseris	SD	Africa/Khartoum	8630330696303481297
55.62047	37.49338	Tyoply Stan	RU	Europe/Moscow	3590433799317661396
29.98869	122.20488	Zhoushan	CN	Asia/Shanghai	863033069630348560
-13.7804	34.4587	Salima	MW	Africa/Blantyre	3590433799317662154
40.94065	-73.99681	Dumont	US	America/New_York	3590433799317662360
37.60876	-77.37331	Mechanicsville	US	America/New_York	359043379931766973
26.18924	-98.15529	San Juan	US	America/Chicago	863033069630348511
-8.99167	125.21972	Maliana	TL	Asia/Dili	8630330696303481800
52.41667	0.75	Thetford	GB	Europe/London	3590433799317661594
15.79408	104.1451	Yasothon	TH	Asia/Bangkok	359043379931766122
48.8222	2.12213	Le Chesnay	FR	Europe/Paris	8630330696303481792
51.64316	-0.36053	Bushey	GB	Europe/London	8630330696303481032
34.65918	109.22921	Yanliang	CN	Asia/Shanghai	863033069630348198
14.8361	120.97844	Guyong	PH	Asia/Manila	3590433799317662006
-11.48472	-37.93278	Rio Real	BR	America/Bahia	8630330696303482303
5.20856	-74.73584	Honda	CO	America/Bogota	863033069630348156
48.98333	2.61667	Mitry-Mory	FR	Europe/Paris	8630330696303481388
24.81757	84.63445	Rafiganj	IN	Asia/Kolkata	3590433799317662212
11.00599	77.5609	Kangayam	IN	Asia/Kolkata	359043379931766379
32.35126	-95.30106	Tyler	US	America/Chicago	8630330696303482378
50.26729	-119.27337	Vernon	CA	America/Vancouver	8630330696303481263
7.6	4.18333	Olupona	NG	Africa/Lagos	3590433799317662006
40.5576	-74.28459	Woodbridge	US	America/New_York	3590433799317661081
34.86472	117.55417	Zaozhuang	CN	Asia/Shanghai	863033069630348503
-6.91806	106.92667	Sukabumi	ID	Asia/Jakarta	8630330696303481180
41.91886	8.73812	Ajaccio	FR	Europe/Paris	8630330696303482329
20.28527	-103.42897	Jocotepec	MX	America/Mexico_City	8630330696303482295
-29.2975	-51.50361	Carlos Barbosa	BR	America/Sao_Paulo	3590433799317661875
41.72063	12.6723	Ariccia	IT	Europe/Rome	8630330696303481008
4.88441	101.96857	Gua Musang	MY	Asia/Kuala_Lumpur	359043379931766668
8.88988	-79.62603	Veracruz	PA	America/Panama	8630330696303481040
44.75874	19.21437	Bijeljina	BA	Europe/Sarajevo	3590433799317662022
16.0438	120.4861	Manaoag	PH	Asia/Manila	863033069630348131
36.92574	14.72443	Ragusa	IT	Europe/Rome	359043379931766783
58.63667	59.80222	Lesnoy	RU	Asia/Yekaterinburg	359043379931766494
4.02219	101.02083	Teluk Intan	MY	Asia/Kuala_Lumpur	8630330696303481842
-22.57306	-47.1725	Artur Nogueira	BR	America/Sao_Paulo	8630330696303481677
44.75874	19.21437	Bijeljina	BA	Europe/Sarajevo	3590433799317661008
52.4581	13.28702	Dahlem	DE	Europe/Berlin	359043379931766882
1.6561	103.6032	Kulai	MY	Asia/Kuala_Lumpur	3590433799317661123
33.86419	48.26258	Aleshtar	IR	Asia/Tehran	3590433799317661842
-8.43333	114.33333	Muncar	ID	Asia/Jakarta	8630330696303481982
42.67164	14.01481	Roseto degli Abruzzi	IT	Europe/Rome	863033069630348974
-27.4338	-65.61427	Aguilares	AR	America/Argentina/Tucuman	359043379931766791
13.73417	-89.71472	Sonzacate	SV	America/El_Salvador	8630330696303482345
-2.90055	-79.00453	Cuenca	EC	America/Guayaquil	359043379931766833
3.02013	30.91105	Arua	UG	Africa/Kampala	8630330696303482485
68.79833	16.54165	Harstad	NO	Europe/Oslo	863033069630348222
23.15678	-81.24441	Varadero	CU	America/Havana	359043379931766270
13.48082	-86.58208	Somoto	NI	America/Managua	863033069630348974
14.53767	46.83187	Ataq	YE	Asia/Aden	863033069630348933
40.81	-73.9625	Morningside Heights	US	America/New_York	8630330696303481925
-0.35817	42.54536	Kismayo	SO	Africa/Mogadishu	8630330696303481909
30.16688	-96.39774	Brenham	US	America/Chicago	8630330696303482253
36.46917	10.78222	Beni Khiar	TN	Africa/Tunis	3590433799317661057
52.09	5.23333	Zeist	NL	Europe/Amsterdam	3590433799317662485
58.7002	59.4839	Kachkanar	RU	Asia/Yekaterinburg	3590433799317661669
13.48082	-86.58208	Somoto	NI	America/Managua	8630330696303481933
39.08367	-84.50855	Covington	US	America/New_York	8630330696303482006
23.73333	114.68333	Heyuan	CN	Asia/Shanghai	359043379931766395
-22.92306	-53.13722	Loanda	BR	America/Sao_Paulo	8630330696303481909
30.35028	112.19028	Jingzhou	CN	Asia/Shanghai	359043379931766908
-15.21194	-75.11028	Minas de Marcona	PE	America/Lima	8630330696303481693
53.00974	-3.05814	Rhosllanerchrugog	GB	Europe/London	8630330696303481826
50.86079	17.4674	Brzeg	PL	Europe/Warsaw	3590433799317662139
22.83957	91.84128	Manikchari	BD	Asia/Dhaka	8630330696303482469
9.82564	78.25795	Tiruppuvanam	IN	Asia/Kolkata	863033069630348180
41.92361	20.91361	Bogovinje	MK	Europe/Skopje	8630330696303481883
35.6803	51.0193	Shahre Jadide Andisheh	IR	Asia/Tehran	359043379931766791
68.79833	16.54165	Harstad	NO	Europe/Oslo	863033069630348420
40.2737	-76.88442	Harrisburg	US	America/New_York	8630330696303481420
13.70727	9.15013	Mirriah	NE	Africa/Niamey	359043379931766742
44.98901	38.94324	Yablonovskiy	RU	Europe/Moscow	3590433799317662485
-1.26753	116.82887	Balikpapan	ID	Asia/Makassar	3590433799317662170
58.1908	40.17171	Danilov	RU	Europe/Moscow	3590433799317662204
49.738430	13.373637	Plzeň	CZ	Europe/Prague	8630330696303482022
40.11583	67.84222	Jizzax	UZ	Asia/Samarkand	8630330696303482261
33.98154	-81.23621	Lexington	US	America/New_York	8630330696303482329
41.50343	-74.01042	Newburgh	US	America/New_York	8630330696303481768
40.92298	14.30935	Afragola	IT	Europe/Rome	3590433799317661735
-7.0981	109.3243	Randudongkal	ID	Asia/Jakarta	359043379931766114
-17.83333	48.41667	Ambatondrazaka	MG	Indian/Antananarivo	8630330696303482345
51.4781	57.3552	Kuvandyk	RU	Asia/Yekaterinburg	863033069630348610
11.00599	77.5609	Kangayam	IN	Asia/Kolkata	8630330696303481859
-22.45667	-47.53028	Santa Gertrudes	BR	America/Sao_Paulo	3590433799317662238
-19.65	47.31667	Antanifotsy	MG	Indian/Antananarivo	3590433799317661776
42.16808	-88.42814	Huntley	US	America/Chicago	3590433799317662204
40.34912	-111.90466	Saratoga Springs	US	America/Denver	863033069630348719
-6.91806	106.92667	Sukabumi	ID	Asia/Jakarta	8630330696303482337
32.54278	111.50861	Danjiangkou	CN	Asia/Shanghai	8630330696303481263
34.15429	3.50309	Messaad	DZ	Africa/Algiers	3590433799317661180
6.33444	124.95278	Tupi	PH	Asia/Manila	863033069630348073
12.04161	75.35927	Talipparamba	IN	Asia/Kolkata	359043379931766833
39.96097	-75.60804	West Chester	US	America/New_York	3590433799317661826
10.20898	123.758	Naga	PH	Asia/Manila	8630330696303482444
47.05	15.46667	Sankt Peter	AT	Europe/Vienna	8630330696303482071
4.02219	101.02083	Teluk Intan	MY	Asia/Kuala_Lumpur	3590433799317662386
-33.79176	151.08057	Eastwood	AU	Australia/Sydney	8630330696303481784
-8.66667	-35.71667	Catende	BR	America/Recife	3590433799317662212
53.95278	32.86389	Roslavl‚Äô	RU	Europe/Moscow	8630330696303481818
48.52961	12.16179	Landshut	DE	Europe/Berlin	8630330696303481990
20.88953	-156.47432	Kahului	US	Pacific/Honolulu	359043379931766809
1.6561	103.6032	Kulai	MY	Asia/Kuala_Lumpur	3590433799317661859
33.41012	-91.06177	Greenville	US	America/Chicago	3590433799317662485
55.82885	-4.21376	Rutherglen	GB	Europe/London	3590433799317662105
36.82167	128.63083	Eisen	KR	Asia/Seoul	3590433799317662287
-19.32556	-41.25528	Resplendor	BR	America/Sao_Paulo	3590433799317661743
14.62578	121.12251	Antipolo	PH	Asia/Manila	359043379931766486
41.66394	-83.55521	Toledo	US	America/New_York	3590433799317662295
-7.51611	109.05389	Wangon	ID	Asia/Jakarta	8630330696303482014
21.46527	83.97573	Sambalpur	IN	Asia/Kolkata	8630330696303481198
41.94175	123.50266	Hushitai	CN	Asia/Shanghai	359043379931766007
39.96348	-4.83076	Talavera de la Reina	ES	Europe/Madrid	8630330696303481370
-25.42944	-50.00639	Palmeira	BR	America/Sao_Paulo	3590433799317662048
59.37722	28.19028	Narva	EE	Europe/Tallinn	3590433799317661776
43.61092	3.87723	Montpellier	FR	Europe/Paris	3590433799317661602
-22.53722	-42.98194	Guapimirim	BR	America/Sao_Paulo	8630330696303482394
42.7	27.25	Aytos	BG	Europe/Sofia	3590433799317661875
55.82737	-4.0573	Viewpark	GB	Europe/London	8630330696303481826
25.80565	68.49143	Bhit Shah	PK	Asia/Karachi	359043379931766684
-44.39672	171.25364	Timaru	NZ	Pacific/Auckland	863033069630348495
46.75451	33.34864	Nova Kakhovka	UA	Europe/Kyiv	359043379931766643
44.89784	8.86374	Tortona	IT	Europe/Rome	3590433799317662394
-21.44236	27.46153	Tonota	BW	Africa/Gaborone	8630330696303481032
18.57677	-72.22625	Croix-des-Bouquets	HT	America/Port-au-Prince	3590433799317662154
31.64615	120.74221	Changshu City	CN	Asia/Shanghai	8630330696303481727
10.61285	12.19458	Biu	NG	Africa/Lagos	3590433799317661362
31.12406	-97.90308	Copperas Cove	US	America/Chicago	8630330696303481156
13.73417	-89.71472	Sonzacate	SV	America/El_Salvador	359043379931766858
19.32889	-99.32556	San Lorenzo Acopilco	MX	America/Mexico_City	8630330696303481669
5.27247	-3.59625	Bonoua	CI	Africa/Abidjan	3590433799317661156
29.65163	-82.32483	Gainesville	US	America/New_York	8630330696303481016
38.07789	13.44275	Villabate	IT	Europe/Rome	359043379931766148
3.7278	98.6738	Labuhan Deli	ID	Asia/Jakarta	3590433799317661453
24.81757	84.63445	Rafiganj	IN	Asia/Kolkata	8630330696303481024
43.35071	46.10925	Gudermes	RU	Europe/Moscow	3590433799317661370
51.95838	4.47124	Schiebroek	NL	Europe/Amsterdam	3590433799317661487
38.54491	-121.74052	Davis	US	America/Los_Angeles	3590433799317661396
-33.59217	-70.6996	San Bernardo	CL	America/Santiago	359043379931766486
34.77453	-96.67834	Ada	US	America/Chicago	3590433799317661776
50.09019	8.4493	Hofheim am Taunus	DE	Europe/Berlin	3590433799317661479
13.70167	-89.10944	Ilopango	SV	America/El_Salvador	3590433799317661180
33.14447	47.3799	Darreh Shahr	IR	Asia/Tehran	8630330696303481875
30.35028	112.19028	Jingzhou	CN	Asia/Shanghai	863033069630348842
38.40917	112.73333	Xinzhou	CN	Asia/Shanghai	359043379931766593
25.6439	77.9129	Narwar	IN	Asia/Kolkata	8630330696303482105
38.06084	-97.92977	Hutchinson	US	America/Chicago	3590433799317662436
23.0072	-82.4017	Boyeros	CU	America/Havana	359043379931766551
-21.42917	-45.94722	Alfenas	BR	America/Sao_Paulo	3590433799317661131
50.23805	8.86704	Nidderau	DE	Europe/Berlin	3590433799317662030
50.8	3.16667	Wevelgem	BE	Europe/Brussels	863033069630348206
-8.66667	-35.71667	Catende	BR	America/Recife	3590433799317662485
-8.66667	-35.71667	Catende	BR	America/Recife	863033069630348503
42.64685	-5.55835	Villaquilambre	ES	Europe/Madrid	3590433799317662253
-37.32167	-59.13316	Tandil	AR	America/Argentina/Buenos_Aires	8630330696303482055
51.19139	6.51352	Korschenbroich	DE	Europe/Berlin	3590433799317661693
39.59611	27.02444	Edremit	TR	Europe/Istanbul	863033069630348768
51.95838	4.47124	Schiebroek	NL	Europe/Amsterdam	3590433799317661990
40.57788	-73.95958	Brighton Beach	US	America/New_York	8630330696303481149
6.25947	102.05461	Tak Bai	TH	Asia/Bangkok	863033069630348362
12.97389	123.99333	Sorsogon	PH	Asia/Manila	8630330696303481719
52.14	5.58472	Barneveld	NL	Europe/Amsterdam	359043379931766700
7.50251	5.06258	Igbara-Odo	NG	Africa/Lagos	8630330696303482386
44.73941	-93.12577	Rosemount	US	America/Chicago	359043379931766742
45.44868	-73.81669	Pointe-Claire	CA	America/Toronto	8630330696303481362
-10.91722	-37.65	Lagarto	BR	America/Maceio	8630330696303481032
46.18396	6.10237	Onex	CH	Europe/Zurich	8630330696303481818
52.66277	-2.01111	Great Wyrley	GB	Europe/London	8630330696303482048
41.80753	-87.65644	New City	US	America/Chicago	863033069630348909
40.56754	-89.64066	Pekin	US	America/Chicago	3590433799317661370
26.11527	86.59509	Supaul	IN	Asia/Kolkata	863033069630348941
55.1904	30.2049	Vitebsk	BY	Europe/Minsk	863033069630348040
-23.85972	35.34722	Maxixe	MZ	Africa/Maputo	359043379931766627
52.59319	13.32127	Wittenau	DE	Europe/Berlin	359043379931766825
43.16547	-77.70066	Gates-North Gates	US	America/New_York	863033069630348396
26.9423	68.11759	Tharu Shah	PK	Asia/Karachi	3590433799317662428
31.71667	73.38333	Sangla Hill	PK	Asia/Karachi	3590433799317661701
47.56494	31.33078	Voznesensk	UA	Europe/Kyiv	3590433799317661511
51.40148	-1.32471	Newbury	GB	Europe/London	3590433799317661263
-22.57306	-47.1725	Artur Nogueira	BR	America/Sao_Paulo	3590433799317661396
46.09273	-88.64235	Iron River	US	America/Menominee	8630330696303482154
7.6	4.18333	Olupona	NG	Africa/Lagos	359043379931766304
21.53889	71.57737	Gariadhar	IN	Asia/Kolkata	359043379931766692
5.84752	-5.682	Lakota	CI	Africa/Abidjan	359043379931766528
45.4473	-73.75335	Dorval	CA	America/Toronto	8630330696303481461
5.84752	-5.682	Lakota	CI	Africa/Abidjan	3590433799317661446
35.64889	117.27583	Sishui	CN	Asia/Shanghai	863033069630348651
48.90982	2.45012	Bobigny	FR	Europe/Paris	8630330696303482261
51.65333	5.2875	Vught	NL	Europe/Amsterdam	8630330696303481727
37.56667	140.11667	Inawashiro	JP	Asia/Tokyo	8630330696303482048
44.22639	22.53083	Negotin	RS	Europe/Belgrade	863033069630348305
31.84568	-102.36764	Odessa	US	America/Chicago	8630330696303482105
-26.93366	29.24152	Standerton	ZA	Africa/Johannesburg	8630330696303481925
-11.94306	-76.70944	Chosica	PE	America/Lima	8630330696303482022
34.77453	-96.67834	Ada	US	America/Chicago	863033069630348271
52.09	5.23333	Zeist	NL	Europe/Amsterdam	8630330696303481685
50.79205	-1.08593	Southsea	GB	Europe/London	3590433799317661008
40.66482	122.22833	Yingkou	CN	Asia/Shanghai	8630330696303482030
52.47774	10.5511	Gifhorn	DE	Europe/Berlin	863033069630348669
52.53048	13.29371	Charlottenburg-Nord	DE	Europe/Berlin	359043379931766668
42.64685	-5.55835	Villaquilambre	ES	Europe/Madrid	8630330696303481073
14.8361	120.97844	Guyong	PH	Asia/Manila	863033069630348222
32.65246	51.67462	Isfahan	IR	Asia/Tehran	8630330696303482485
28.15112	-82.46148	Lutz	US	America/New_York	359043379931766577
1.6	103.81667	Ulu Tiram	MY	Asia/Kuala_Lumpur	8630330696303481008
5.27247	-3.59625	Bonoua	CI	Africa/Abidjan	8630330696303481347
53.81667	-3.05	Blackpool	GB	Europe/London	8630330696303482220
33.08014	-83.2321	Milledgeville	US	America/New_York	3590433799317661784
12.95629	78.27539	Robertsonpet	IN	Asia/Kolkata	3590433799317662261
36	139.55722	Okegawa	JP	Asia/Tokyo	863033069630348677
40.53123	17.58522	Francavilla Fontana	IT	Europe/Rome	359043379931766940
7.83389	-72.47417	Villa del Rosario	CO	America/Bogota	359043379931766114
42.4251	-71.06616	Malden	US	America/New_York	8630330696303481503
36.20829	-115.98391	Pahrump	US	America/Los_Angeles	8630330696303482170
11.93381	79.82979	Puducherry	IN	Asia/Kolkata	8630330696303481156
51.44889	5.51978	Tongelre	NL	Europe/Amsterdam	3590433799317661891
55.1904	30.2049	Vitebsk	BY	Europe/Minsk	359043379931766817
41.77583	140.73667	Hakodate	JP	Asia/Tokyo	3590433799317661669
4.88441	101.96857	Gua Musang	MY	Asia/Kuala_Lumpur	8630330696303481768
41.80753	-87.65644	New City	US	America/Chicago	8630330696303481263
40.98894	28.67582	Yakuplu	TR	Europe/Istanbul	359043379931766742
-27.76952	30.79165	Vryheid	ZA	Africa/Johannesburg	3590433799317662147
-4.06667	37.73333	Same	TZ	Africa/Dar_es_Salaam	863033069630348065
50.80019	7.20769	Siegburg	DE	Europe/Berlin	8630330696303482147
37.31309	40.74357	Mardin	TR	Europe/Istanbul	8630330696303481859
34.95303	-120.43572	Santa Maria	US	America/Los_Angeles	8630330696303481339
45.51667	4.86667	Vienne	FR	Europe/Paris	863033069630348289
35.815	139.6853	Shimotoda	JP	Asia/Tokyo	8630330696303482063
34.63915	-120.45794	Lompoc	US	America/Los_Angeles	359043379931766049
52.68333	0.93333	East Dereham	GB	Europe/London	359043379931766668
34.25807	-88.70464	Tupelo	US	America/Chicago	359043379931766841
50.82709	6.9747	Wesseling	DE	Europe/Berlin	3590433799317661354
42.819	47.1192	Buynaksk	RU	Europe/Moscow	359043379931766486
41.84364	-87.71255	South Lawndale	US	America/Chicago	8630330696303481024
34.56861	105.89333	Beidao	CN	Asia/Shanghai	8630330696303482345
-4.06667	37.73333	Same	TZ	Africa/Dar_es_Salaam	863033069630348388
49.88307	-119.48568	Kelowna	CA	America/Vancouver	863033069630348230
40.68066	-73.47429	Massapequa	US	America/New_York	359043379931766643
47.56494	31.33078	Voznesensk	UA	Europe/Kyiv	8630330696303482006
42.8334	-80.38297	Norfolk County	CA	America/Toronto	3590433799317662154
45.75279	130.57211	Boli	CN	Asia/Shanghai	359043379931766437
34.21639	-119.0376	Camarillo	US	America/Los_Angeles	863033069630348784
35.48199	137.02166	Minokamo	JP	Asia/Tokyo	3590433799317661321
36.08497	9.37082	Siliana	TN	Africa/Tunis	8630330696303481347
42.7392	-84.62081	Waverly	US	America/Detroit	3590433799317661065
36.61033	-88.31476	Murray	US	America/Chicago	359043379931766569
46.65581	32.6178	Kherson	UA	Europe/Kyiv	863033069630348362
5.30383	-1.98956	Tarkwa	GH	Africa/Accra	8630330696303481602
36.76639	3.47717	Boumerdas	DZ	Africa/Algiers	863033069630348685
17.34769	78.55757	Lal Bahadur Nagar	IN	Asia/Kolkata	3590433799317661164
40.2737	-76.88442	Harrisburg	US	America/New_York	3590433799317661578
8.43333	99.96667	Nakhon Si Thammarat	TH	Asia/Bangkok	359043379931766825
-1.6	103.61667	Jambi City	ID	Asia/Jakarta	359043379931766833
35.20889	111.73861	Changzhi	CN	Asia/Shanghai	8630330696303482006
48.98333	2.61667	Mitry-Mory	FR	Europe/Paris	3590433799317661115
41.80753	-87.65644	New City	US	America/Chicago	3590433799317661453
36.33011	138.89585	Annaka	JP	Asia/Tokyo	3590433799317662006
55.82737	-4.0573	Viewpark	GB	Europe/London	3590433799317662220
49.88307	-119.48568	Kelowna	CA	America/Vancouver	3590433799317662196
23.02677	113.13148	Foshan	CN	Asia/Shanghai	863033069630348438
0.03813	36.36339	Nyahururu	KE	Africa/Nairobi	3590433799317662139
24.05979	77.40858	Leteri	IN	Asia/Kolkata	359043379931766338
38.70734	-77.02303	Fort Washington	US	America/New_York	359043379931766684
10.29085	105.75635	Sa Dec	VN	Asia/Ho_Chi_Minh	863033069630348545
23.18	88.58	Aistala	IN	Asia/Kolkata	359043379931766395
40.55851	17.80774	Mesagne	IT	Europe/Rome	863033069630348917
52.26083	7.00417	Losser	NL	Europe/Amsterdam	863033069630348982
37.51803	15.00913	Misterbianco	IT	Europe/Rome	3590433799317661412
-23.44361	-51.87389	Sarandi	BR	America/Sao_Paulo	3590433799317661198
40.55851	17.80774	Mesagne	IT	Europe/Rome	3590433799317662014
60.2052	24.6522	Espoo	FI	Europe/Helsinki	359043379931766254
43.32686	-2.98884	Leioa	ES	Europe/Madrid	8630330696303481347
14.53767	46.83187	Ataq	YE	Asia/Aden	8630330696303481388
36.65	138.31667	Suzaka	JP	Asia/Tokyo	863033069630348297
44.59445	11.04979	Castelfranco Emilia	IT	Europe/Rome	359043379931766270
-4.06667	37.73333	Same	TZ	Africa/Dar_es_Salaam	359043379931766114
25.87498	86.59611	Saharsa	IN	Asia/Kolkata	3590433799317662188
11.8659	34.3869	Ar Ruseris	SD	Africa/Khartoum	359043379931766072
7.62789	4.74161	Ilesa	NG	Africa/Lagos	8630330696303482246
35.72917	10.58082	Msaken	TN	Africa/Tunis	3590433799317661594
27.85	112.9	Xiangtan	CN	Asia/Shanghai	3590433799317662410
53.00974	-3.05814	Rhosllanerchrugog	GB	Europe/London	863033069630348602
35.05266	-78.87836	Fayetteville	US	America/New_York	8630330696303482121
47.4943	-122.24092	Bryn Mawr-Skyway	US	America/Los_Angeles	863033069630348107
46.67535	5.55575	Lons-le-Saunier	FR	Europe/Paris	359043379931766619
52.2	8.63333	Kirchlengern	DE	Europe/Berlin	863033069630348099
44.35056	142.45778	Nayoro	JP	Asia/Tokyo	359043379931766544
49.65186	26.97253	Krasyliv	UA	Europe/Kyiv	8630330696303481958
42.16808	-88.42814	Huntley	US	America/Chicago	3590433799317661586
34.15429	3.50309	Messaad	DZ	Africa/Algiers	359043379931766643
-21.15	46.58333	Ikalamavony	MG	Indian/Antananarivo	3590433799317662170
-34.64167	-60.47389	Chacabuco	AR	America/Argentina/Buenos_Aires	8630330696303482196
20.14298	-77.43532	Media Luna	CU	America/Havana	3590433799317662428
57.14369	-2.09814	Aberdeen	GB	Europe/London	8630330696303481420
34.06635	-84.67837	Acworth	US	America/New_York	359043379931766379
22.19303	88.18466	Diamond Harbour	IN	Asia/Kolkata	359043379931766700
-22.97056	-46.99583	Valinhos	BR	America/Sao_Paulo	359043379931766155
6.95194	121.96361	Recodo	PH	Asia/Manila	359043379931766619
40.93333	73	Jalal-Abad	KG	Asia/Bishkek	359043379931766759
12.35275	121.06761	San Jose	PH	Asia/Manila	3590433799317661578
50.06	43.2379	Mikhaylovka	RU	Europe/Volgograd	8630330696303481289
17.30858	97.01124	Kyaikto	MM	Asia/Yangon	359043379931766692
59.37722	28.19028	Narva	EE	Europe/Tallinn	359043379931766189
51.39323	0.47713	Strood	GB	Europe/London	8630330696303482170
14.67751	-60.94228	Le Robert	MQ	America/Martinique	8630330696303481669
-32.45242	-71.23106	La Ligua	CL	America/Santiago	8630330696303481131
28.98002	77.70636	Meerut	IN	Asia/Kolkata	3590433799317662329
21.28306	-89.66123	Progreso	MX	America/Merida	8630330696303482055
38.68712	-4.10734	Puertollano	ES	Europe/Madrid	3590433799317662329
47.76232	-122.2054	Bothell	US	America/Los_Angeles	3590433799317661792
39.72943	-104.83192	Aurora	US	America/Denver	3590433799317661818
33.43443	-5.22126	Azrou	MA	Africa/Casablanca	3590433799317662352
56.03361	35.96944	Volokolamsk	RU	Europe/Moscow	863033069630348339
53.53333	-7.35	An Muileann gCearr	IE	Europe/Dublin	3590433799317661123
29.21399	78.95693	Kashipur	IN	Asia/Kolkata	8630330696303481065
55.82885	-4.21376	Rutherglen	GB	Europe/London	359043379931766379
51.65333	5.2875	Vught	NL	Europe/Amsterdam	8630330696303481206
-4.24444	-42.29444	Barras	BR	America/Fortaleza	8630330696303482063
24.41288	76.56719	Aklera	IN	Asia/Kolkata	863033069630348859
48.07667	8.64409	Trossingen	DE	Europe/Berlin	3590433799317661974
52.53048	13.29371	Charlottenburg-Nord	DE	Europe/Berlin	8630330696303481396
40.5576	-74.28459	Woodbridge	US	America/New_York	3590433799317662279
41.24264	16.50104	Bisceglie	IT	Europe/Rome	3590433799317661685
52.53048	13.29371	Charlottenburg-Nord	DE	Europe/Berlin	863033069630348768
55.54028	89.20083	Sharypovo	RU	Asia/Krasnoyarsk	863033069630348297
16.06213	76.0586	Hungund	IN	Asia/Kolkata	863033069630348974
48.98994	2.1699	Herblay	FR	Europe/Paris	3590433799317661651
53.43333	-7.95	Athlone	IE	Europe/Dublin	863033069630348529
13.65805	102.56365	Paoy Paet	KH	Asia/Phnom_Penh	863033069630348297
36.61954	4.08282	Beni Douala	DZ	Africa/Algiers	863033069630348560
41.57721	-93.71133	West Des Moines	US	America/Chicago	3590433799317661529
32.35126	-95.30106	Tyler	US	America/Chicago	8630330696303481222
51.65333	5.2875	Vught	NL	Europe/Amsterdam	3590433799317661438
30.76468	74.12286	Kanganpur	PK	Asia/Karachi	863033069630348115
40.70995	0.57856	Amposta	ES	Europe/Madrid	359043379931766122
-33.38056	-56.52361	Durazno	UY	America/Montevideo	8630330696303481271
31.20176	29.91582	Alexandria	EG	Africa/Cairo	3590433799317661446
10.61285	12.19458	Biu	NG	Africa/Lagos	3590433799317661867
28.15112	-82.46148	Lutz	US	America/New_York	8630330696303481271
29.65163	-82.32483	Gainesville	US	America/New_York	3590433799317661263
45.50369	11.412	Montecchio Maggiore-Alte Ceccato	IT	Europe/Rome	863033069630348230
55.25	24.75	Ukmerge	LT	Europe/Vilnius	8630330696303481420
21.53889	71.57737	Gariadhar	IN	Asia/Kolkata	8630330696303481776
-34.28853	146.05093	Griffith	AU	Australia/Sydney	3590433799317662212
32.52515	-93.75018	Shreveport	US	America/Chicago	8630330696303481115
35.05266	-78.87836	Fayetteville	US	America/New_York	8630330696303481883
6.03333	37.55	Arba Minch	ET	Africa/Addis_Ababa	3590433799317662303
19.30157	72.85107	Bhayandar	IN	Asia/Kolkata	3590433799317661099
12.18441	18.69303	Mongo	TD	Africa/Ndjamena	359043379931766965
43.1122	12.38878	Perugia	IT	Europe/Rome	863033069630348222
58.04254	65.27258	Tavda	RU	Asia/Yekaterinburg	359043379931766775
41.63976	2.35739	Cardedeu	ES	Europe/Madrid	8630330696303481990
48.73218	11.18709	Neuburg an der Donau	DE	Europe/Berlin	8630330696303481776
50.75	2.25	Saint-Omer	FR	Europe/Paris	8630330696303482139
-7.60361	37.00438	Kidodi	TZ	Africa/Dar_es_Salaam	359043379931766049
44.43579	26.01649	Sector 6	RO	Europe/Bucharest	359043379931766346
10.63504	-85.43772	Liberia	CR	America/Costa_Rica	863033069630348313
28.54944	-81.77285	Clermont	US	America/New_York	863033069630348768
8.35122	-62.64102	Ciudad Guayana	VE	America/Caracas	8630330696303481305
6.46346	-2.31938	Bibiani	GH	Africa/Accra	3590433799317661321
0.46005	34.11169	Busia	KE	Africa/Nairobi	3590433799317661230
31.96258	73.97117	Naushahra Virkan	PK	Asia/Karachi	8630330696303482337
5.90702	116.10146	Donggongon	MY	Asia/Kuching	863033069630348198
-33.75881	150.99292	Baulkham Hills	AU	Australia/Sydney	359043379931766098
51.84819	1.26738	Walton-on-the-Naze	GB	Europe/London	359043379931766643
35.64889	117.27583	Sishui	CN	Asia/Shanghai	863033069630348198
40.64621	-73.97069	Kensington	US	America/New_York	8630330696303482428
55.39485	43.83992	Arzamas	RU	Europe/Moscow	863033069630348412
19.04222	-98.11889	Casa Blanca	MX	America/Mexico_City	8630330696303482014
51.19139	6.51352	Korschenbroich	DE	Europe/Berlin	863033069630348008
37.05944	37.3825	Gaziantep	TR	Europe/Istanbul	3590433799317662428
50.7236	-3.52751	Exeter	GB	Europe/London	863033069630348768
41.20485	-8.33147	Paredes	PT	Europe/Lisbon	359043379931766148
33.54428	-84.23381	Stockbridge	US	America/New_York	863033069630348461
3.31332	117.59152	Tarakan	ID	Asia/Makassar	359043379931766874
51.67822	33.9162	Hlukhiv	UA	Europe/Kyiv	8630330696303481479
40.65538	-74.38987	Scotch Plains	US	America/New_York	3590433799317661131
53.53395	33.72798	Zhukovka	RU	Europe/Moscow	8630330696303482014
48.98994	2.1699	Herblay	FR	Europe/Paris	8630330696303482493
32.17629	75.06583	Fazilpur	PK	Asia/Karachi	3590433799317661776
40.72816	-74.07764	Jersey City	US	America/New_York	8630330696303481297
35.61452	-88.81395	Jackson	US	America/Chicago	3590433799317662204
27.76056	-15.58602	Maspalomas	ES	Atlantic/Canary	3590433799317661461
37.1759	128.9889	T‚Äôaebaek	KR	Asia/Seoul	8630330696303481958
43.1009	-75.23266	Utica	US	America/New_York	3590433799317661230
36.33011	138.89585	Annaka	JP	Asia/Tokyo	8630330696303481693
-10.91722	-37.65	Lagarto	BR	America/Maceio	3590433799317662071
24.81757	84.63445	Rafiganj	IN	Asia/Kolkata	3590433799317661362
8.62261	-70.20749	Barinas	VE	America/Caracas	359043379931766163
27.0174	49.62251	Al Jubayl	SA	Asia/Riyadh	8630330696303481701
39.72943	-104.83192	Aurora	US	America/Denver	863033069630348065
43.91452	-69.96533	Brunswick	US	America/New_York	3590433799317662428
45.69558	4.7934	Saint-Genis-Laval	FR	Europe/Paris	3590433799317661123
43.1009	-75.23266	Utica	US	America/New_York	3590433799317661735
29.53885	-95.44744	Fresno	US	America/Chicago	8630330696303481024
53.59782	34.33825	Dyat‚Äôkovo	RU	Europe/Moscow	3590433799317662238
33.72255	-116.37697	Palm Desert	US	America/Los_Angeles	359043379931766635
43.62558	13.39954	Falconara Marittima	IT	Europe/Rome	3590433799317662352
33.14447	47.3799	Darreh Shahr	IR	Asia/Tehran	863033069630348479
27.09978	-82.45426	Venice	US	America/New_York	3590433799317661321
31.96258	73.97117	Naushahra Virkan	PK	Asia/Karachi	8630330696303481594
55.54028	89.20083	Sharypovo	RU	Asia/Krasnoyarsk	8630330696303481701
65.93381	111.4834	Aykhal	RU	Asia/Yakutsk	359043379931766841
-6.25	38.66667	Mvomero	TZ	Africa/Dar_es_Salaam	8630330696303481776
45.0408	-93.263	Columbia Heights	US	America/Chicago	863033069630348511
10.20898	123.758	Naga	PH	Asia/Manila	863033069630348990
6.95194	121.96361	Recodo	PH	Asia/Manila	8630330696303482311
19.32889	-99.32556	San Lorenzo Acopilco	MX	America/Mexico_City	863033069630348610
34.14251	-118.25508	Glendale	US	America/Los_Angeles	863033069630348461
44.59445	11.04979	Castelfranco Emilia	IT	Europe/Rome	3590433799317661107
41.92361	20.91361	Bogovinje	MK	Europe/Skopje	359043379931766544
-37.9	145.18333	Wheelers Hill	AU	Australia/Melbourne	863033069630348909
42.64685	-5.55835	Villaquilambre	ES	Europe/Madrid	8630330696303482238
51.03427	5.37429	Houthalen	BE	Europe/Brussels	863033069630348149
46.51872	86.00214	Hoxtolgay	CN	Asia/Urumqi	3590433799317661271
5.6561	-75.87877	Andes	CO	America/Bogota	863033069630348016
53.46506	-1.47217	Chapletown	GB	Europe/London	3590433799317661453
40.87363	14.34085	Volla	IT	Europe/Rome	359043379931766858
40.81	-73.9625	Morningside Heights	US	America/New_York	8630330696303481362
34.77453	-96.67834	Ada	US	America/Chicago	3590433799317661313
20.22816	-103.5687	Zacoalco de Torres	MX	America/Mexico_City	359043379931766486
44.92801	4.8951	Valence	FR	Europe/Paris	359043379931766684
51.82721	107.60627	Ulan-Ude	RU	Asia/Irkutsk	8630330696303481768
-27.4338	-65.61427	Aguilares	AR	America/Argentina/Tucuman	3590433799317661701
19.64745	-102.04897	Paracho de Verduzco	MX	America/Mexico_City	359043379931766296
-13.7804	34.4587	Salima	MW	Africa/Blantyre	3590433799317662253
-26.22861	-52.67056	Pato Branco	BR	America/Sao_Paulo	8630330696303481537
-5.85746	144.23058	Mount Hagen	PG	Pacific/Port_Moresby	8630330696303482261
5.84752	-5.682	Lakota	CI	Africa/Abidjan	359043379931766791
31.28092	74.85849	Patti	IN	Asia/Kolkata	8630330696303481057
31.71667	73.38333	Sangla Hill	PK	Asia/Karachi	863033069630348495
51.03427	5.37429	Houthalen	BE	Europe/Brussels	3590433799317661768
44.73941	-93.12577	Rosemount	US	America/Chicago	863033069630348388
42.97086	-82.42491	Port Huron	US	America/Detroit	3590433799317661529
4.88441	101.96857	Gua Musang	MY	Asia/Kuala_Lumpur	359043379931766817
44.31771	9.32241	Chiavari	IT	Europe/Rome	3590433799317661073
-11.48472	-37.93278	Rio Real	BR	America/Bahia	3590433799317662246
27.55898	68.21204	Larkana	PK	Asia/Karachi	3590433799317661826
38.40917	112.73333	Xinzhou	CN	Asia/Shanghai	3590433799317662477
10.63504	-85.43772	Liberia	CR	America/Costa_Rica	863033069630348537
0.46005	34.11169	Busia	KE	Africa/Nairobi	359043379931766858
54.39304	53.26023	Bavly	RU	Europe/Moscow	863033069630348925
40.49748	44.7662	Hrazdan	AM	Asia/Yerevan	8630330696303482329
55.82885	-4.21376	Rutherglen	GB	Europe/London	8630330696303482139
39.96097	-75.60804	West Chester	US	America/New_York	359043379931766338
59.37722	28.19028	Narva	EE	Europe/Tallinn	8630330696303481255
14.95472	120.89694	Baliuag	PH	Asia/Manila	3590433799317662253
43.86682	-79.2663	Markham	CA	America/Toronto	3590433799317661792
14.53767	46.83187	Ataq	YE	Asia/Aden	8630330696303481818
54.84444	38.16694	Kashira	RU	Europe/Moscow	8630330696303481149
-22.53722	-42.98194	Guapimirim	BR	America/Sao_Paulo	8630330696303481776
29.65163	-82.32483	Gainesville	US	America/New_York	8630330696303481347
-15.675	-38.94722	Canavieiras	BR	America/Bahia	863033069630348404
13.51825	99.95469	Damnoen Saduak	TH	Asia/Bangkok	8630330696303481545
54.8421	46.5813	Alatyr‚Äô	RU	Europe/Moscow	3590433799317661610
29.69221	72.54566	Hasilpur	PK	Asia/Karachi	3590433799317661248
23.73333	114.68333	Heyuan	CN	Asia/Shanghai	359043379931766106
33.93113	-117.54866	Norco	US	America/Los_Angeles	359043379931766049
38.06084	-97.92977	Hutchinson	US	America/Chicago	359043379931766866
-33.75881	150.99292	Baulkham Hills	AU	Australia/Sydney	8630330696303482279
43.41949	77.0202	Otegen Batyra	KZ	Asia/Almaty	359043379931766585
45.53069	9.40531	Gorgonzola	IT	Europe/Rome	8630330696303481750
40.24537	-75.64963	Pottstown	US	America/New_York	8630330696303481289
41.15612	1.10687	Reus	ES	Europe/Madrid	3590433799317661800
53.6052	10.03988	Barmbek-Nord	DE	Europe/Berlin	359043379931766205
51.30001	13.10984	Oschatz	DE	Europe/Berlin	3590433799317661818
59.37722	28.19028	Narva	EE	Europe/Tallinn	359043379931766973
53.38333	-0.76667	Gainsborough	GB	Europe/London	8630330696303481115
14.14989	121.3152	Calauan	PH	Asia/Manila	8630330696303481420
33.3213	130.94098	Hita	JP	Asia/Tokyo	3590433799317662428
12.12278	-61.62498	Grenville	GD	America/Grenada	863033069630348487
43.35071	46.10925	Gudermes	RU	Europe/Moscow	863033069630348404
35.25064	-91.73625	Searcy	US	America/Chicago	8630330696303481719
44.22639	22.53083	Negotin	RS	Europe/Belgrade	863033069630348511
42.22718	14.39024	Lanciano	IT	Europe/Rome	8630330696303482063
35	136.51667	Komono	JP	Asia/Tokyo	8630330696303481446
38.17492	-122.2608	American Canyon	US	America/Los_Angeles	3590433799317662410
33.35283	-111.78903	Gilbert	US	America/Phoenix	3590433799317661420
-3.5403	118.9707	Majene	ID	Asia/Makassar	863033069630348875
56.11281	69.49015	Ishim	RU	Asia/Yekaterinburg	8630330696303482329
51.39323	0.47713	Strood	GB	Europe/London	3590433799317662089
49.68369	8.61839	Bensheim	DE	Europe/Berlin	359043379931766775
-34.74785	-58.70072	Pontevedra	AR	America/Argentina/Buenos_Aires	863033069630348115
4.73245	-74.26419	Madrid	CO	America/Bogota	863033069630348149
31.12406	-97.90308	Copperas Cove	US	America/Chicago	863033069630348032
10.13361	124.84472	Maasin	PH	Asia/Manila	8630330696303481669
38.40917	112.73333	Xinzhou	CN	Asia/Shanghai	3590433799317661487
43.71032	-1.05366	Dax	FR	Europe/Paris	8630330696303482048
48.98693	2.44892	Gonesse	FR	Europe/Paris	359043379931766510
40.87329	14.43865	Somma Vesuviana	IT	Europe/Rome	8630330696303481255
22.83957	91.84128	Manikchari	BD	Asia/Dhaka	8630330696303482196
50.82709	6.9747	Wesseling	DE	Europe/Berlin	8630330696303481958
34.77453	-96.67834	Ada	US	America/Chicago	3590433799317662154
50.64336	7.2278	Bad Honnef	DE	Europe/Berlin	8630330696303481099
8.56697	123.33471	Dipolog	PH	Asia/Manila	359043379931766759
43.48961	-8.2194	Ferrol	ES	Europe/Madrid	8630330696303482477
60.02427	30.28491	Kolomyagi	RU	Europe/Moscow	359043379931766452
27.71809	-82.35176	Sun City Center	US	America/New_York	3590433799317661685
23.9028	89.11943	Kushtia	BD	Asia/Dhaka	8630330696303481800
-23.85972	35.34722	Maxixe	MZ	Africa/Maputo	8630330696303481214
45.35	126.28333	Shuangcheng	CN	Asia/Shanghai	3590433799317661974
51.08468	7.11393	Burscheid	DE	Europe/Berlin	359043379931766072
41.41204	2.18247	el Camp de l'Arpa del Clot	ES	Europe/Madrid	3590433799317662246
1.6561	103.6032	Kulai	MY	Asia/Kuala_Lumpur	3590433799317661313
45.51667	4.86667	Vienne	FR	Europe/Paris	8630330696303481933
32.50611	120.14278	Jiangyan	CN	Asia/Shanghai	8630330696303482014
41.57439	24.71204	Smolyan	BG	Europe/Sofia	359043379931766254
3.51667	11.5	Mbalmayo	CM	Africa/Douala	863033069630348537
23.04419	-82.00919	Jaruco	CU	America/Havana	8630330696303481776
53.59337	9.47629	Stade	DE	Europe/Berlin	863033069630348412
30.24706	115.04814	Huangshi	CN	Asia/Shanghai	359043379931766536
50.64336	7.2278	Bad Honnef	DE	Europe/Berlin	863033069630348107
11.86064	9.0027	Gaya	NG	Africa/Lagos	863033069630348792
38.10558	-1.86343	Caravaca	ES	Europe/Madrid	359043379931766692
57.97472	33.2525	Valday	RU	Europe/Moscow	863033069630348628
41.75338	-86.11084	Granger	US	America/Indiana/Indianapolis	8630330696303481214
36.06523	-119.01677	Porterville	US	America/Los_Angeles	863033069630348057
11.15583	42.7125	'Ali Sabieh	DJ	Africa/Djibouti	8630330696303481487
50.23019	8.77155	Karben	DE	Europe/Berlin	3590433799317661768
32.9156	-117.14392	Mira Mesa	US	America/Los_Angeles	8630330696303481339
43.78956	7.60872	Ventimiglia	IT	Europe/Rome	359043379931766080
55.82737	-4.0573	Viewpark	GB	Europe/London	8630330696303482105
1.6	103.81667	Ulu Tiram	MY	Asia/Kuala_Lumpur	3590433799317661313
40.66482	122.22833	Yingkou	CN	Asia/Shanghai	863033069630348065
-17.83333	48.41667	Ambatondrazaka	MG	Indian/Antananarivo	359043379931766411
50.82709	6.9747	Wesseling	DE	Europe/Berlin	359043379931766494
42.62833	20.89389	Glogovac	XK	Europe/Belgrade	359043379931766510
45.44694	8.62118	Novara	IT	Europe/Rome	863033069630348420
41.91886	8.73812	Ajaccio	FR	Europe/Paris	359043379931766486
27.76056	-15.58602	Maspalomas	ES	Atlantic/Canary	3590433799317662220
34.5624	38.28402	Tadmur	SY	Asia/Damascus	8630330696303481776
-54.8	-68.3	Ushuaia	AR	America/Argentina/Ushuaia	3590433799317662246
40.87329	14.43865	Somma Vesuviana	IT	Europe/Rome	359043379931766411
27.76056	-15.58602	Maspalomas	ES	Atlantic/Canary	8630330696303481537
39.72943	-104.83192	Aurora	US	America/Denver	8630330696303481479
60.18427	24.95034	Kallio	FI	Europe/Helsinki	8630330696303481792
36.82167	128.63083	Eisen	KR	Asia/Seoul	3590433799317662444
24.96334	10.18003	Ghat	LY	Africa/Tripoli	359043379931766098
41.47892	-87.45476	Schererville	US	America/Chicago	3590433799317661834
53.6052	10.03988	Barmbek-Nord	DE	Europe/Berlin	3590433799317661164
52.4581	13.28702	Dahlem	DE	Europe/Berlin	3590433799317662196
-32.05251	115.88782	Willetton	AU	Australia/Perth	863033069630348107
13.65805	102.56365	Paoy Paet	KH	Asia/Phnom_Penh	3590433799317661529
35.61452	-88.81395	Jackson	US	America/Chicago	863033069630348610
-7.51611	109.05389	Wangon	ID	Asia/Jakarta	8630330696303482212
42.93369	-72.27814	Keene	US	America/New_York	863033069630348438
35.8	137.23333	Gero	JP	Asia/Tokyo	863033069630348370
-21.15	46.58333	Ikalamavony	MG	Indian/Antananarivo	8630330696303481693
11.15583	42.7125	'Ali Sabieh	DJ	Africa/Djibouti	863033069630348156
41.27194	123.17306	Liaoyang	CN	Asia/Shanghai	8630330696303481651
51.42708	-0.91979	Lower Earley	GB	Europe/London	8630330696303481560
-34.28853	146.05093	Griffith	AU	Australia/Sydney	863033069630348065
46.65581	32.6178	Kherson	UA	Europe/Kyiv	3590433799317662014
-22.53722	-42.98194	Guapimirim	BR	America/Sao_Paulo	8630330696303481610
-17.73648	168.31366	Port-Vila	VU	Pacific/Efate	359043379931766486
45.51667	4.86667	Vienne	FR	Europe/Paris	8630330696303482113
-30.60106	-71.19901	Ovalle	CL	America/Santiago	863033069630348719
23.18	88.58	Aistala	IN	Asia/Kolkata	863033069630348784
37.60876	-77.37331	Mechanicsville	US	America/New_York	863033069630348792
12.12278	-61.62498	Grenville	GD	America/Grenada	863033069630348933
41.85059	-87.882	Westchester	US	America/Chicago	359043379931766031
56.11281	69.49015	Ishim	RU	Asia/Yekaterinburg	3590433799317661347
-7.54972	110.71639	Ngemplak	ID	Asia/Jakarta	863033069630348016
47.64995	-117.23991	Opportunity	US	America/Los_Angeles	8630330696303482162
44.89784	8.86374	Tortona	IT	Europe/Rome	863033069630348453
-10.33333	39.28333	Nyangao	TZ	Africa/Dar_es_Salaam	3590433799317662469
17.06542	-96.72365	Oaxaca	MX	America/Mexico_City	359043379931766643
45.9836	12.70038	Cordenons	IT	Europe/Rome	863033069630348024
55.25	24.75	Ukmerge	LT	Europe/Vilnius	863033069630348263
51.12794	4.21372	Temse	BE	Europe/Brussels	3590433799317661248
45.49428	-122.86705	Aloha	US	America/Los_Angeles	8630330696303482261
-38.65333	178.00417	Gisborne	NZ	Pacific/Auckland	3590433799317661693
47.90771	106.88324	Ulan Bator	MN	Asia/Ulaanbaatar	8630330696303481156
22.88783	84.13864	Jashpurnagar	IN	Asia/Kolkata	3590433799317662139
-21.41222	-42.19667	Miracema	BR	America/Sao_Paulo	8630330696303482279
33.03699	-117.29198	Encinitas	US	America/Los_Angeles	3590433799317661859
48.35693	10.98461	Friedberg	DE	Europe/Berlin	359043379931766585
51.78771	56.36091	Saraktash	RU	Asia/Yekaterinburg	3590433799317661537
10.22677	-67.33122	La Victoria	VE	America/Caracas	3590433799317662170
8.43333	99.96667	Nakhon Si Thammarat	TH	Asia/Bangkok	359043379931766544
49.952431	15.268654	Kutná Hora	CZ	Europe/Prague	359043379931766734
58.23583	92.48278	Lesosibirsk	RU	Asia/Krasnoyarsk	8630330696303481404
14.66	120.56528	Pilar	PH	Asia/Manila	8630330696303482162
3.02013	30.91105	Arua	UG	Africa/Kampala	863033069630348719
35.85	117.7	Dongdu	CN	Asia/Shanghai	3590433799317661172
53.94313	10.30215	Bad Segeberg	DE	Europe/Berlin	8630330696303481990
41.72059	-87.70172	Evergreen Park	US	America/Chicago	3590433799317662238
6.15038	6.83042	Nkpor	NG	Africa/Lagos	359043379931766833
27.76056	-15.58602	Maspalomas	ES	Atlantic/Canary	8630330696303482493
50.79205	-1.08593	Southsea	GB	Europe/London	3590433799317662394
14.53767	46.83187	Ataq	YE	Asia/Aden	863033069630348792
44.80477	-0.59543	Talence	FR	Europe/Paris	8630330696303481008
55.63711	37.38115	Solntsevo	RU	Europe/Moscow	8630330696303481602
38.55632	69.01354	Vahdat	TJ	Asia/Dushanbe	3590433799317661404
32.87533	71.57118	Daud Khel	PK	Asia/Karachi	8630330696303482428
33.41012	-91.06177	Greenville	US	America/Chicago	863033069630348289
41.29444	69.67639	Parkent	UZ	Asia/Tashkent	863033069630348024
34.21639	-119.0376	Camarillo	US	America/Los_Angeles	3590433799317661495
7.62789	4.74161	Ilesa	NG	Africa/Lagos	863033069630348628
18.42745	-67.15407	Aguadilla	PR	America/Puerto_Rico	3590433799317661180
17.30858	97.01124	Kyaikto	MM	Asia/Yangon	3590433799317662220
20.88197	85.83334	Bhuban	IN	Asia/Kolkata	8630330696303481172
39.78504	-85.76942	Greenfield	US	America/Indiana/Indianapolis	8630330696303481107
48.90982	2.45012	Bobigny	FR	Europe/Paris	863033069630348412
21.53889	71.57737	Gariadhar	IN	Asia/Kolkata	863033069630348792
48.43174	17.8031	Hlohovec	SK	Europe/Bratislava	863033069630348545
40.64621	-73.97069	Kensington	US	America/New_York	863033069630348735
50.073658	14.418540	Praha	CZ	Europe/Prague	3590433799317662352
18.51957	73.85535	Pune	IN	Asia/Kolkata	8630330696303482436
53.38333	-0.76667	Gainsborough	GB	Europe/London	8630330696303482493
34.63915	-120.45794	Lompoc	US	America/Los_Angeles	359043379931766882
53.6052	10.03988	Barmbek-Nord	DE	Europe/Berlin	3590433799317661750
-31.95224	115.8614	Perth	AU	Australia/Perth	3590433799317662147
3.7278	98.6738	Labuhan Deli	ID	Asia/Jakarta	359043379931766809
33.72255	-116.37697	Palm Desert	US	America/Los_Angeles	3590433799317661792
40.65538	-74.38987	Scotch Plains	US	America/New_York	3590433799317662147
28.15112	-82.46148	Lutz	US	America/New_York	8630330696303481016
30.29184	71.67164	Qadirpur Ran	PK	Asia/Karachi	863033069630348040
51.64316	-0.36053	Bushey	GB	Europe/London	863033069630348073
11.8659	34.3869	Ar Ruseris	SD	Africa/Khartoum	3590433799317661784
12.97389	123.99333	Sorsogon	PH	Asia/Manila	8630330696303481792
51.21667	6.26667	Schwalmtal	DE	Europe/Berlin	863033069630348966
41.63976	2.35739	Cardedeu	ES	Europe/Madrid	8630330696303482030
-22.97056	-46.99583	Valinhos	BR	America/Sao_Paulo	359043379931766999
19.32889	-99.32556	San Lorenzo Acopilco	MX	America/Mexico_City	8630330696303481503
40.1675	34.37389	Sungurlu	TR	Europe/Istanbul	3590433799317662139
46.75451	33.34864	Nova Kakhovka	UA	Europe/Kyiv	8630330696303481628
38.40917	112.73333	Xinzhou	CN	Asia/Shanghai	3590433799317661941
-4.5833	15.16554	Kasangulu	CD	Africa/Kinshasa	863033069630348081
41.27194	123.17306	Liaoyang	CN	Asia/Shanghai	359043379931766569
7.50251	5.06258	Igbara-Odo	NG	Africa/Lagos	8630330696303481768
40.87363	14.34085	Volla	IT	Europe/Rome	3590433799317661115
60.18427	24.95034	Kallio	FI	Europe/Helsinki	3590433799317661842
44.80477	-0.59543	Talence	FR	Europe/Paris	359043379931766676
-32.45242	-71.23106	La Ligua	CL	America/Santiago	3590433799317662394
36.91023	-121.75689	Watsonville	US	America/Los_Angeles	8630330696303481321
19.04222	-98.11889	Casa Blanca	MX	America/Mexico_City	3590433799317661990
-4.16694	-40.7475	Guaraciaba do Norte	BR	America/Fortaleza	863033069630348198
32.05971	34.8732	Ganei Tikva	IL	Asia/Jerusalem	8630330696303481891
-37.32167	-59.13316	Tandil	AR	America/Argentina/Buenos_Aires	3590433799317661719
34.56861	105.89333	Beidao	CN	Asia/Shanghai	863033069630348255
48.73218	11.18709	Neuburg an der Donau	DE	Europe/Berlin	863033069630348586
51.82721	107.60627	Ulan-Ude	RU	Asia/Irkutsk	359043379931766403
33.78333	114.51667	Wacheng	CN	Asia/Shanghai	3590433799317662469
45.51667	4.86667	Vienne	FR	Europe/Paris	359043379931766817
38.96667	-0.18333	Gandia	ES	Europe/Madrid	359043379931766478
33.86419	48.26258	Aleshtar	IR	Asia/Tehran	359043379931766437
33.98154	-81.23621	Lexington	US	America/New_York	359043379931766866
54.39635	24.04142	Alytus	LT	Europe/Vilnius	863033069630348990
52.09	5.23333	Zeist	NL	Europe/Amsterdam	8630330696303482287
-31.4488	-60.93173	Esperanza	AR	America/Argentina/Cordoba	863033069630348990
-27.76952	30.79165	Vryheid	ZA	Africa/Johannesburg	3590433799317661347
45.51667	4.86667	Vienne	FR	Europe/Paris	359043379931766361
48.8449	17.22635	Skalica	SK	Europe/Bratislava	3590433799317661172
11.12018	76.11996	Manjeri	IN	Asia/Kolkata	863033069630348198
53.69786	-2.68758	Leyland	GB	Europe/London	8630330696303482071
46.32313	-0.45877	Niort	FR	Europe/Paris	3590433799317661503
36.27462	4.85668	Bordj Zemoura	DZ	Africa/Algiers	863033069630348651
50.72043	11.34046	Rudolstadt	DE	Europe/Berlin	3590433799317661354
-22.97056	-46.99583	Valinhos	BR	America/Sao_Paulo	863033069630348800
61.78491	34.34691	Petrozavodsk	RU	Europe/Moscow	359043379931766445
48.77275	5.16108	Bar-le-Duc	FR	Europe/Paris	3590433799317661164
25.13915	73.06784	Sheoganj	IN	Asia/Kolkata	359043379931766148
39.78504	-85.76942	Greenfield	US	America/Indiana/Indianapolis	3590433799317661834
30.5427	-97.54667	Hutto	US	America/Chicago	359043379931766239
20.21322	-100.88023	Salvatierra	MX	America/Mexico_City	863033069630348875
68.79833	16.54165	Harstad	NO	Europe/Oslo	863033069630348495
50.75932	25.34244	Lutsk	UA	Europe/Kyiv	359043379931766841
9.535	-13.68778	Camayenne	GN	Africa/Conakry	8630330696303481602
57.97472	33.2525	Valday	RU	Europe/Moscow	8630330696303481867
12.12278	-61.62498	Grenville	GD	America/Grenada	359043379931766932
55.75556	60.70278	Ozersk	RU	Asia/Yekaterinburg	8630330696303481883
39.59611	27.02444	Edremit	TR	Europe/Istanbul	8630330696303482212
34.09668	-117.71978	Claremont	US	America/Los_Angeles	3590433799317661164
-11.94306	-76.70944	Chosica	PE	America/Lima	3590433799317661446
39.33427	-76.43941	Middle River	US	America/New_York	8630330696303482071
48.90982	2.45012	Bobigny	FR	Europe/Paris	359043379931766197
48.21644	9.02596	Albstadt	DE	Europe/Berlin	863033069630348321
-34.64966	-58.38341	Barracas	AR	America/Argentina/Buenos_Aires	359043379931766312
18.57677	-72.22625	Croix-des-Bouquets	HT	America/Port-au-Prince	8630330696303482279
50.8	3.16667	Wevelgem	BE	Europe/Brussels	863033069630348388
50.11861	-5.53715	Penzance	GB	Europe/London	3590433799317661990
51.67822	33.9162	Hlukhiv	UA	Europe/Kyiv	8630330696303481198
-3.14306	-58.44417	Itacoatiara	BR	America/Manaus	3590433799317661693
-0.35817	42.54536	Kismayo	SO	Africa/Mogadishu	863033069630348271
51.67822	33.9162	Hlukhiv	UA	Europe/Kyiv	8630330696303481198
54.39304	53.26023	Bavly	RU	Europe/Moscow	3590433799317661826
4.94273	15.87735	Carnot	CF	Africa/Bangui	3590433799317662493
48.35149	8.96317	Hechingen	DE	Europe/Berlin	8630330696303481495
28.90054	-81.26367	Deltona	US	America/New_York	359043379931766536
-2.68333	33	Usagara	TZ	Africa/Dar_es_Salaam	8630330696303482170
8.35122	-62.64102	Ciudad Guayana	VE	America/Caracas	3590433799317661263
20.88098	75.11937	Parola	IN	Asia/Kolkata	359043379931766510
-19.7625	-44.31389	Esmeraldas	BR	America/Sao_Paulo	8630330696303482360
18.51957	73.85535	Pune	IN	Asia/Kolkata	359043379931766502
39.71734	-74.96933	Sicklerville	US	America/New_York	359043379931766502
53.43333	-7.95	Athlone	IE	Europe/Dublin	8630330696303482014
26.9423	68.11759	Tharu Shah	PK	Asia/Karachi	8630330696303481867
54.48147	53.47103	Oktyabr‚Äôskiy	RU	Asia/Yekaterinburg	863033069630348867
35.06667	135.21667	Sasayama	JP	Asia/Tokyo	3590433799317661818
53.51684	-113.3187	Sherwood Park	CA	America/Edmonton	8630330696303482063
45.39402	9.29109	San Giuliano Milanese	IT	Europe/Rome	3590433799317662014
33.72255	-116.37697	Palm Desert	US	America/Los_Angeles	3590433799317662345
51.24197	4.82313	Lille	BE	Europe/Brussels	863033069630348628
52.59319	13.32127	Wittenau	DE	Europe/Berlin	359043379931766700
45.44694	8.62118	Novara	IT	Europe/Rome	3590433799317662139
24.81757	84.63445	Rafiganj	IN	Asia/Kolkata	8630330696303482139
49.07866	30.96755	Zvenihorodka	UA	Europe/Kyiv	3590433799317661461
37.35813	-6.03731	San Juan de Aznalfarache	ES	Europe/Madrid	359043379931766502
18.65297	-72.09391	Thomazeau	HT	America/Port-au-Prince	863033069630348164
37.65639	126.835	Goyang-si	KR	Asia/Seoul	8630330696303481511
37.19723	122.05228	Tianfu	CN	Asia/Shanghai	863033069630348974
33.95015	-118.03917	South Whittier	US	America/Los_Angeles	863033069630348495
48.98693	2.44892	Gonesse	FR	Europe/Paris	359043379931766411
45.49428	-122.86705	Aloha	US	America/Los_Angeles	3590433799317662469
47.46657	84.87144	Zaysan	KZ	Asia/Almaty	359043379931766437
23.49668	86.68363	Adra	IN	Asia/Kolkata	863033069630348537
31.78336	35.23388	East Jerusalem	PS	Asia/Hebron	3590433799317661479
19.04222	-98.11889	Casa Blanca	MX	America/Mexico_City	863033069630348727
43.32393	5.4584	Les Olives	FR	Europe/Paris	359043379931766635
17.34769	78.55757	Lal Bahadur Nagar	IN	Asia/Kolkata	3590433799317662204
54.48147	53.47103	Oktyabr‚Äôskiy	RU	Asia/Yekaterinburg	8630330696303481388
19.32932	-98.1664	Contla	MX	America/Mexico_City	8630330696303481586
35.61452	-88.81395	Jackson	US	America/Chicago	3590433799317662410
33.92946	-116.97725	Beaumont	US	America/Los_Angeles	3590433799317662394
49.5099	6.74549	Losheim	DE	Europe/Berlin	8630330696303481404
40.24537	-75.64963	Pottstown	US	America/New_York	3590433799317662162
40.11583	67.84222	Jizzax	UZ	Asia/Samarkand	8630330696303482378
41.1053	-7.32097	Custoias	PT	Europe/Lisbon	3590433799317661750
50.80904	8.77069	Marburg an der Lahn	DE	Europe/Berlin	863033069630348461
15.48131	-86.57415	Olanchito	HN	America/Tegucigalpa	3590433799317662402
49.183239	15.454273	Telč	CZ	Europe/Prague	8630330696303482006
-6.48167	106.85417	Cibinong	ID	Asia/Jakarta	359043379931766189
36.24624	139.07204	Fujioka	JP	Asia/Tokyo	359043379931766312
43.41949	77.0202	Otegen Batyra	KZ	Asia/Almaty	3590433799317661420
40.53123	17.58522	Francavilla Fontana	IT	Europe/Rome	3590433799317661404
45.35	126.28333	Shuangcheng	CN	Asia/Shanghai	863033069630348552
6.33444	124.95278	Tupi	PH	Asia/Manila	8630330696303481586
37.58105	29.26639	Serinhisar	TR	Europe/Istanbul	8630330696303481545
55.54028	89.20083	Sharypovo	RU	Asia/Krasnoyarsk	863033069630348040
39.96097	-75.60804	West Chester	US	America/New_York	3590433799317661529
52.21099	7.02238	Gronau	DE	Europe/Berlin	863033069630348198
42.55308	-87.93341	Pleasant Prairie	US	America/Chicago	3590433799317661404
-13.7804	34.4587	Salima	MW	Africa/Blantyre	863033069630348891
10.31672	123.89071	Cebu City	PH	Asia/Manila	3590433799317661495
26.9423	68.11759	Tharu Shah	PK	Asia/Karachi	3590433799317661289
-27.76952	30.79165	Vryheid	ZA	Africa/Johannesburg	863033069630348180
45.43341	-73.86586	Beaconsfield	CA	America/Toronto	3590433799317662428
38.54491	-121.74052	Davis	US	America/Los_Angeles	359043379931766510
43.32686	-2.98884	Leioa	ES	Europe/Madrid	863033069630348040
-6.48167	106.85417	Cibinong	ID	Asia/Jakarta	359043379931766577
42.28639	18.84	Budva	ME	Europe/Podgorica	8630330696303481818
27.9247	78.40102	Chharra	IN	Asia/Kolkata	863033069630348446
33.43443	-5.22126	Azrou	MA	Africa/Casablanca	359043379931766858
37.52487	-77.55777	Bon Air	US	America/New_York	3590433799317662337
40.63316	-74.13653	Port Richmond	US	America/New_York	359043379931766494
-4.83	29.65806	Mwandiga	TZ	Africa/Dar_es_Salaam	863033069630348461
68.79833	16.54165	Harstad	NO	Europe/Oslo	3590433799317661883
56.85836	35.90057	Tver	RU	Europe/Moscow	863033069630348875
4.02219	101.02083	Teluk Intan	MY	Asia/Kuala_Lumpur	359043379931766478
44.89784	8.86374	Tortona	IT	Europe/Rome	8630330696303481081
20.21322	-100.88023	Salvatierra	MX	America/Mexico_City	359043379931766437
41.6764	-91.58045	Coralville	US	America/Chicago	3590433799317662063
34.09611	-118.10583	San Gabriel	US	America/Los_Angeles	359043379931766510
41.09822	120.74792	Nanpiao	CN	Asia/Shanghai	863033069630348545
34.61667	135.6	Yao	JP	Asia/Tokyo	359043379931766536
49.07866	30.96755	Zvenihorodka	UA	Europe/Kyiv	8630330696303481651
12.97389	123.99333	Sorsogon	PH	Asia/Manila	3590433799317661719
48.812737	14.317466	Český Krumlov	CZ	Europe/Prague	863033069630348313
-12.91667	-39.25	Muritiba	BR	America/Bahia	359043379931766916
51.26	-2.1875	Westbury	GB	Europe/London	359043379931766593
26.68451	-80.66756	Belle Glade	US	America/New_York	8630330696303481818
41.24264	16.50104	Bisceglie	IT	Europe/Rome	8630330696303482030
34.5624	38.28402	Tadmur	SY	Asia/Damascus	3590433799317661842
61.72744	17.10558	Hudiksvall	SE	Europe/Stockholm	8630330696303482238
40.5576	-74.28459	Woodbridge	US	America/New_York	8630330696303482006
32.87533	71.57118	Daud Khel	PK	Asia/Karachi	359043379931766874
39.22493	42.85693	Patnos	TR	Europe/Istanbul	8630330696303481941
34.4833	136.84186	Toba	JP	Asia/Tokyo	3590433799317661321
36.46917	10.78222	Beni Khiar	TN	Africa/Tunis	8630330696303481164
49.07866	30.96755	Zvenihorodka	UA	Europe/Kyiv	3590433799317662048
42.62833	20.89389	Glogovac	XK	Europe/Belgrade	359043379931766973
-21.41222	-42.19667	Miracema	BR	America/Sao_Paulo	3590433799317662493
48.25	16.4	Floridsdorf	AT	Europe/Vienna	359043379931766429
42.4251	-71.06616	Malden	US	America/New_York	3590433799317661339
53.37596	51.3452	Otradnyy	RU	Europe/Samara	359043379931766650
41.94175	123.50266	Hushitai	CN	Asia/Shanghai	8630330696303481602
60.2052	24.6522	Espoo	FI	Europe/Helsinki	359043379931766221
14.62578	121.12251	Antipolo	PH	Asia/Manila	8630330696303482345
32.54044	-82.90375	Dublin	US	America/New_York	8630330696303481479
47.76232	-122.2054	Bothell	US	America/Los_Angeles	359043379931766940
51.78771	56.36091	Saraktash	RU	Asia/Yekaterinburg	3590433799317661024
42.8334	-80.38297	Norfolk County	CA	America/Toronto	863033069630348214
48.73218	11.18709	Neuburg an der Donau	DE	Europe/Berlin	863033069630348511
16.0438	120.4861	Manaoag	PH	Asia/Manila	863033069630348297
54.60528	18.34717	Reda	PL	Europe/Warsaw	8630330696303481032
12.12278	-61.62498	Grenville	GD	America/Grenada	3590433799317661313
30.81383	75.16878	Moga	IN	Asia/Kolkata	8630330696303481172
51.35084	-1.99421	Devizes	GB	Europe/London	863033069630348032
30.75545	20.22625	Ajdabiya	LY	Africa/Tripoli	8630330696303481289
36.76639	3.47717	Boumerdas	DZ	Africa/Algiers	3590433799317661446
-1.63333	13.58357	Franceville	GA	Africa/Libreville	8630330696303481263
14.67751	-60.94228	Le Robert	MQ	America/Martinique	8630330696303482493
36.27462	4.85668	Bordj Zemoura	DZ	Africa/Algiers	3590433799317661586
-34.64167	-60.47389	Chacabuco	AR	America/Argentina/Buenos_Aires	8630330696303482055
23.73333	114.68333	Heyuan	CN	Asia/Shanghai	3590433799317661933
53.77166	38.12408	Bogoroditsk	RU	Europe/Moscow	863033069630348776
9.15093	-79.62098	Chilibre	PA	America/Panama	359043379931766924
57.47908	-4.22398	Inverness	GB	Europe/London	8630330696303481875
45.69558	4.7934	Saint-Genis-Laval	FR	Europe/Paris	8630330696303481792
20.88953	-156.47432	Kahului	US	Pacific/Honolulu	8630330696303482238
39.71734	-74.96933	Sicklerville	US	America/New_York	863033069630348784
33.7207	-116.21677	Indio	US	America/Los_Angeles	359043379931766460
51.14942	15.00835	Zgorzelec	PL	Europe/Warsaw	8630330696303481628
29.65163	-82.32483	Gainesville	US	America/New_York	8630330696303481016
36.65	138.31667	Suzaka	JP	Asia/Tokyo	359043379931766692
31.39547	34.75699	Rahat	IL	Asia/Jerusalem	3590433799317661594
4.2475	9.00472	Idenao	CM	Africa/Douala	359043379931766155
51.65333	5.2875	Vught	NL	Europe/Amsterdam	3590433799317662279
53.37596	51.3452	Otradnyy	RU	Europe/Samara	3590433799317661107
-22.9	44.53333	Sakaraha	MG	Indian/Antananarivo	3590433799317661818
36	139.55722	Okegawa	JP	Asia/Tokyo	863033069630348990
17.54907	82.85749	Elamanchili	IN	Asia/Kolkata	863033069630348388
50.76306	-1.29772	Cowes	GB	Europe/London	359043379931766932
41.80753	-87.65644	New City	US	America/Chicago	8630330696303482113
32.65246	51.67462	Isfahan	IR	Asia/Tehran	3590433799317662287
47.4943	-122.24092	Bryn Mawr-Skyway	US	America/Los_Angeles	359043379931766676
3.51667	11.5	Mbalmayo	CM	Africa/Douala	3590433799317661792
43.78956	7.60872	Ventimiglia	IT	Europe/Rome	863033069630348537
43.48961	-8.2194	Ferrol	ES	Europe/Madrid	3590433799317661651
41.94175	123.50266	Hushitai	CN	Asia/Shanghai	8630330696303481123
48.98333	2.61667	Mitry-Mory	FR	Europe/Paris	359043379931766239
37.71715	-122.40433	Visitacion Valley	US	America/Los_Angeles	359043379931766866
59.37722	28.19028	Narva	EE	Europe/Tallinn	8630330696303481677
5.6561	-75.87877	Andes	CO	America/Bogota	8630330696303482139
46.51872	86.00214	Hoxtolgay	CN	Asia/Urumqi	8630330696303481933
42	21.32778	Saraj	MK	Europe/Skopje	8630330696303481867
42.62833	20.89389	Glogovac	XK	Europe/Belgrade	359043379931766767
-22.45667	-47.53028	Santa Gertrudes	BR	America/Sao_Paulo	8630330696303481321
9.89206	43.38531	Baki	SO	Africa/Mogadishu	863033069630348354
0.51667	101.44167	Pekanbaru	ID	Asia/Jakarta	3590433799317661396
51.12794	4.21372	Temse	BE	Europe/Brussels	863033069630348206
29.84576	-90.10674	Estelle	US	America/Chicago	863033069630348669
51.39148	-0.29825	Surbiton	GB	Europe/London	359043379931766429
-37.32167	-59.13316	Tandil	AR	America/Argentina/Buenos_Aires	863033069630348040
-22.57306	-47.1725	Artur Nogueira	BR	America/Sao_Paulo	863033069630348651
31.28092	74.85849	Patti	IN	Asia/Kolkata	3590433799317662345
50.80904	8.77069	Marburg an der Lahn	DE	Europe/Berlin	8630330696303481305
54.03876	43.91385	Kovylkino	RU	Europe/Moscow	8630330696303482204
45.51667	4.86667	Vienne	FR	Europe/Paris	359043379931766460
-11.48472	-37.93278	Rio Real	BR	America/Bahia	359043379931766551
11.86064	9.0027	Gaya	NG	Africa/Lagos	8630330696303481214
-10.95817	-38.79084	Tucano	BR	America/Bahia	3590433799317661669
30.21121	74.4818	Malaut	IN	Asia/Kolkata	863033069630348669
51.39323	0.47713	Strood	GB	Europe/London	359043379931766510
36.08497	9.37082	Siliana	TN	Africa/Tunis	8630330696303481263
14.14989	121.3152	Calauan	PH	Asia/Manila	359043379931766312
29.53885	-95.44744	Fresno	US	America/Chicago	359043379931766262
11.85	38.01667	Debre Tabor	ET	Africa/Addis_Ababa	863033069630348768
40.87363	14.34085	Volla	IT	Europe/Rome	8630330696303481602
8.48714	-13.2356	Freetown	SL	Africa/Freetown	3590433799317661263
30.24706	115.04814	Huangshi	CN	Asia/Shanghai	3590433799317661875
53.59337	9.47629	Stade	DE	Europe/Berlin	3590433799317661529
40.5576	-74.28459	Woodbridge	US	America/New_York	863033069630348495
37.31309	40.74357	Mardin	TR	Europe/Istanbul	863033069630348404
41.72063	12.6723	Ariccia	IT	Europe/Rome	8630330696303482097
48.98333	2.61667	Mitry-Mory	FR	Europe/Paris	359043379931766379
18.42745	-67.15407	Aguadilla	PR	America/Puerto_Rico	3590433799317661271
43.67681	4.63031	Arles	FR	Europe/Paris	359043379931766676
23.1959	86.51499	Kenda	IN	Asia/Kolkata	359043379931766551
43.11667	1.6	Pamiers	FR	Europe/Paris	863033069630348040
32.61603	44.02488	Karbala	IQ	Asia/Baghdad	3590433799317661800
10.66668	-61.51889	Port of Spain	TT	America/Port_of_Spain	863033069630348552
14.53767	46.83187	Ataq	YE	Asia/Aden	863033069630348370
48.8449	17.22635	Skalica	SK	Europe/Bratislava	863033069630348859
43.82634	144.09638	Motomachi	JP	Asia/Tokyo	863033069630348107
12.25282	79.41727	Gingee	IN	Asia/Kolkata	3590433799317662386
53.63333	9.85	Halstenbek	DE	Europe/Berlin	8630330696303482360
35.06667	135.21667	Sasayama	JP	Asia/Tokyo	359043379931766122
50.18545	27.06365	Shepetivka	UA	Europe/Kyiv	359043379931766320
5.90702	116.10146	Donggongon	MY	Asia/Kuching	3590433799317662410
50.76306	-1.29772	Cowes	GB	Europe/London	3590433799317662337
43.48961	-8.2194	Ferrol	ES	Europe/Madrid	8630330696303481917
36.06523	-119.01677	Porterville	US	America/Los_Angeles	863033069630348339
3.31332	117.59152	Tarakan	ID	Asia/Makassar	3590433799317661883
40.92298	14.30935	Afragola	IT	Europe/Rome	3590433799317662212
48.98333	2.61667	Mitry-Mory	FR	Europe/Paris	863033069630348495
36.6009	126.665	Hongseong	KR	Asia/Seoul	8630330696303482121
45.53929	-122.38731	Troutdale	US	America/Los_Angeles	863033069630348230
32.50611	120.14278	Jiangyan	CN	Asia/Shanghai	863033069630348784
26.9423	68.11759	Tharu Shah	PK	Asia/Karachi	8630330696303481222
36.33011	138.89585	Annaka	JP	Asia/Tokyo	863033069630348388
53.46506	-1.47217	Chapletown	GB	Europe/London	359043379931766452
48.975658	14.480255	České Budějovice	CZ	Europe/Prague	863033069630348388
42.30865	-83.48216	Canton	US	America/Detroit	359043379931766262
41.27621	-72.86843	East Haven	US	America/New_York	3590433799317661206
51.4781	57.3552	Kuvandyk	RU	Asia/Yekaterinburg	3590433799317661065
35.61452	-88.81395	Jackson	US	America/Chicago	3590433799317661289
45.79377	8.88104	Malnate	IT	Europe/Rome	3590433799317661594
4.92675	6.26764	Yenagoa	NG	Africa/Lagos	3590433799317661354
15.46063	99.89166	Thap Than	TH	Asia/Bangkok	3590433799317661768
40.65995	-111.99633	Kearns	US	America/Denver	863033069630348859
36.72544	3.55665	Thenia	DZ	Africa/Algiers	3590433799317661958
33.37526	74.3092	Rajaori	IN	Asia/Kolkata	3590433799317662444
12.74409	-8.07257	Kati	ML	Africa/Bamako	8630330696303482055
39.45621	-77.96389	Martinsburg	US	America/New_York	3590433799317661511
40.65538	-74.38987	Scotch Plains	US	America/New_York	3590433799317662212
48.812737	14.317466	Český Krumlov	CZ	Europe/Prague	863033069630348305
19.04222	-98.11889	Casa Blanca	MX	America/Mexico_City	8630330696303482477
37.31065	13.57661	Agrigento	IT	Europe/Rome	8630330696303481396
40.65538	-74.38987	Scotch Plains	US	America/New_York	863033069630348511
53.49389	-1.29243	Mexborough	GB	Europe/London	8630330696303481420
12.74409	-8.07257	Kati	ML	Africa/Bamako	3590433799317662220
28.71271	77.656	Pilkhua	IN	Asia/Kolkata	359043379931766700
37.51803	15.00913	Misterbianco	IT	Europe/Rome	3590433799317661362
39.71734	-74.96933	Sicklerville	US	America/New_York	3590433799317661438
11.12018	76.11996	Manjeri	IN	Asia/Kolkata	863033069630348149
8.88988	-79.62603	Veracruz	PA	America/Panama	8630330696303482105
35.05266	-78.87836	Fayetteville	US	America/New_York	3590433799317661107
53.00974	-3.05814	Rhosllanerchrugog	GB	Europe/London	8630330696303482444
23.73333	114.68333	Heyuan	CN	Asia/Shanghai	3590433799317661974
5.84752	-5.682	Lakota	CI	Africa/Abidjan	3590433799317661347
52.09	5.23333	Zeist	NL	Europe/Amsterdam	3590433799317661271
50.79205	-1.08593	Southsea	GB	Europe/London	8630330696303481750
19.30157	72.85107	Bhayandar	IN	Asia/Kolkata	8630330696303481800
39.00622	-77.4286	Sterling	US	America/New_York	3590433799317662394
28.54944	-81.77285	Clermont	US	America/New_York	8630330696303481784
11.8659	34.3869	Ar Ruseris	SD	Africa/Khartoum	3590433799317662097
51.168	7.973	Finnentrop	DE	Europe/Berlin	3590433799317662311
46.1351	-60.1831	Sydney	CA	America/Glace_Bay	359043379931766320
-10.33333	39.28333	Nyangao	TZ	Africa/Dar_es_Salaam	8630330696303481941
46.18396	6.10237	Onex	CH	Europe/Zurich	3590433799317662048
48.98333	2.61667	Mitry-Mory	FR	Europe/Paris	863033069630348453
41.75338	-86.11084	Granger	US	America/Indiana/Indianapolis	3590433799317662113
51.78967	1.15597	Clacton-on-Sea	GB	Europe/London	359043379931766726
42.16808	-88.42814	Huntley	US	America/Chicago	359043379931766924
3.31332	117.59152	Tarakan	ID	Asia/Makassar	3590433799317661669
23.29549	113.82465	Licheng	CN	Asia/Shanghai	3590433799317661891
42.64031	125.51176	Dongfeng	CN	Asia/Shanghai	359043379931766270
33.41012	-91.06177	Greenville	US	America/Chicago	3590433799317661412
14.95472	120.89694	Baliuag	PH	Asia/Manila	8630330696303481479
50.9803	11.32903	Weimar	DE	Europe/Berlin	863033069630348008
30.35028	112.19028	Jingzhou	CN	Asia/Shanghai	359043379931766197
44.22639	22.53083	Negotin	RS	Europe/Belgrade	359043379931766486
35	136.51667	Komono	JP	Asia/Tokyo	3590433799317661065
53.53041	43.67663	Nizhniy Lomov	RU	Europe/Moscow	8630330696303481792
50.11861	-5.53715	Penzance	GB	Europe/London	863033069630348412
52.53048	13.29371	Charlottenburg-Nord	DE	Europe/Berlin	863033069630348438
31.64615	120.74221	Changshu City	CN	Asia/Shanghai	8630330696303481586
24.81757	84.63445	Rafiganj	IN	Asia/Kolkata	8630330696303481388
41.27621	-72.86843	East Haven	US	America/New_York	863033069630348016
28.90054	-81.26367	Deltona	US	America/New_York	863033069630348321
43.62558	13.39954	Falconara Marittima	IT	Europe/Rome	8630330696303481347
38.06084	-97.92977	Hutchinson	US	America/Chicago	359043379931766379
53.63333	9.85	Halstenbek	DE	Europe/Berlin	359043379931766809
23.1959	86.51499	Kenda	IN	Asia/Kolkata	3590433799317662360
55.67938	12.53463	Frederiksberg	DK	Europe/Copenhagen	3590433799317661883
31.39547	34.75699	Rahat	IL	Asia/Jerusalem	3590433799317661040
8.35122	-62.64102	Ciudad Guayana	VE	America/Caracas	863033069630348438
40.85158	122.74754	Haicheng	CN	Asia/Shanghai	359043379931766759
37.05944	37.3825	Gaziantep	TR	Europe/Istanbul	359043379931766106
13.48082	-86.58208	Somoto	NI	America/Managua	8630330696303481990
55.64776	38.02486	Malakhovka	RU	Europe/Moscow	8630330696303481792
38.17492	-122.2608	American Canyon	US	America/Los_Angeles	359043379931766858
53.49389	-1.29243	Mexborough	GB	Europe/London	8630330696303481099
68.79833	16.54165	Harstad	NO	Europe/Oslo	8630330696303481750
48.8449	17.22635	Skalica	SK	Europe/Bratislava	3590433799317661651
33.86419	48.26258	Aleshtar	IR	Asia/Tehran	863033069630348875
15.73628	75.96976	Gajendragarh	IN	Asia/Kolkata	863033069630348826
10.98778	-74.95472	Puerto Colombia	CO	America/Bogota	8630330696303481479
42.06166	-1.60452	Tudela	ES	Europe/Madrid	3590433799317662204
27.55898	68.21204	Larkana	PK	Asia/Karachi	3590433799317661008
17.30858	97.01124	Kyaikto	MM	Asia/Yangon	359043379931766528
30.17746	-81.38758	Palm Valley	US	America/New_York	8630330696303481909
27.0174	49.62251	Al Jubayl	SA	Asia/Riyadh	863033069630348032
45.9836	12.70038	Cordenons	IT	Europe/Rome	8630330696303481834
-10.91722	-37.65	Lagarto	BR	America/Maceio	3590433799317661446
6.46838	-73.26022	Socorro	CO	America/Bogota	863033069630348123
41.92361	20.91361	Bogovinje	MK	Europe/Skopje	863033069630348990
32.57756	71.52847	Mianwali	PK	Asia/Karachi	3590433799317662303
41.20485	-8.33147	Paredes	PT	Europe/Lisbon	3590433799317661826
-6.91806	106.92667	Sukabumi	ID	Asia/Jakarta	863033069630348495
-12.91667	-39.25	Muritiba	BR	America/Bahia	863033069630348131
49.952431	15.268654	Kutná Hora	CZ	Europe/Prague	863033069630348974
29.38242	70.91106	Alipur	PK	Asia/Karachi	8630330696303482394
35.64889	117.27583	Sishui	CN	Asia/Shanghai	8630330696303481560
-33.59217	-70.6996	San Bernardo	CL	America/Santiago	8630330696303481032
15.5439	73.7553	Calangute	IN	Asia/Kolkata	8630330696303481776
25.66795	85.83636	Dalsingh Sarai	IN	Asia/Kolkata	863033069630348297
5.4709	100.24529	Batu Feringgi	MY	Asia/Kuala_Lumpur	8630330696303481016
51.82721	107.60627	Ulan-Ude	RU	Asia/Irkutsk	3590433799317661461
40.85158	122.74754	Haicheng	CN	Asia/Shanghai	8630330696303481768
51.42708	-0.91979	Lower Earley	GB	Europe/London	8630330696303482378
45.53069	9.40531	Gorgonzola	IT	Europe/Rome	8630330696303481933
42.8334	-80.38297	Norfolk County	CA	America/Toronto	8630330696303481743
10.29085	105.75635	Sa Dec	VN	Asia/Ho_Chi_Minh	359043379931766544
49.5099	6.74549	Losheim	DE	Europe/Berlin	359043379931766718
45.0408	-93.263	Columbia Heights	US	America/Chicago	359043379931766544
41.1053	-7.32097	Custoias	PT	Europe/Lisbon	3590433799317661172
53.59337	9.47629	Stade	DE	Europe/Berlin	8630330696303481263
52.31333	6.92917	Oldenzaal	NL	Europe/Amsterdam	8630330696303481107
32.55531	76.12647	Chamba	IN	Asia/Kolkata	3590433799317661966
42.30865	-83.48216	Canton	US	America/Detroit	8630330696303481255
-4.42472	-41.45861	Pedro II	BR	America/Fortaleza	8630330696303481859
35.89972	14.51472	Valletta	MT	Europe/Malta	3590433799317661529
34.15429	3.50309	Messaad	DZ	Africa/Algiers	863033069630348313
37.65639	126.835	Goyang-si	KR	Asia/Seoul	3590433799317661172
19.64745	-102.04897	Paracho de Verduzco	MX	America/Mexico_City	8630330696303481123
24.05979	77.40858	Leteri	IN	Asia/Kolkata	8630330696303481107
40.93121	-73.89875	Yonkers	US	America/New_York	3590433799317661172
41.77583	140.73667	Hakodate	JP	Asia/Tokyo	359043379931766502
53.16167	6.76111	Hoogezand	NL	Europe/Amsterdam	863033069630348321
50.76306	-1.29772	Cowes	GB	Europe/London	863033069630348099
33.50921	-111.89903	Scottsdale	US	America/Phoenix	3590433799317662170
11.85	38.01667	Debre Tabor	ET	Africa/Addis_Ababa	8630330696303481032
40.64621	-73.97069	Kensington	US	America/New_York	8630330696303481792
41.55947	14.66737	Campobasso	IT	Europe/Rome	3590433799317661909
20.22816	-103.5687	Zacoalco de Torres	MX	America/Mexico_City	863033069630348008
36.27462	4.85668	Bordj Zemoura	DZ	Africa/Algiers	3590433799317661966
48.98994	2.1699	Herblay	FR	Europe/Paris	863033069630348131
38.10558	-1.86343	Caravaca	ES	Europe/Madrid	359043379931766270
36.76775	2.95924	Cheraga	DZ	Africa/Algiers	3590433799317661685
44.98901	38.94324	Yablonovskiy	RU	Europe/Moscow	863033069630348875
50.75767	-1.5443	Lymington	GB	Europe/London	3590433799317661248
-1.26753	116.82887	Balikpapan	ID	Asia/Makassar	8630330696303482451
22.10194	85.37752	Barbil	IN	Asia/Kolkata	8630330696303481123
18.65297	-72.09391	Thomazeau	HT	America/Port-au-Prince	3590433799317662204
50.82709	6.9747	Wesseling	DE	Europe/Berlin	3590433799317662477
55.1904	30.2049	Vitebsk	BY	Europe/Minsk	863033069630348305
51.35084	-1.99421	Devizes	GB	Europe/London	8630330696303481131
43.78956	7.60872	Ventimiglia	IT	Europe/Rome	8630330696303481800
51.03427	5.37429	Houthalen	BE	Europe/Brussels	3590433799317661776
51.40944	46.04833	Privolzhskiy	RU	Europe/Saratov	863033069630348263
36.46917	10.78222	Beni Khiar	TN	Africa/Tunis	359043379931766023
41.8542	-87.66561	Lower West Side	US	America/Chicago	3590433799317661099
45.4473	-73.75335	Dorval	CA	America/Toronto	3590433799317662345
10.22677	-67.33122	La Victoria	VE	America/Caracas	8630330696303482154
40.65995	-111.99633	Kearns	US	America/Denver	3590433799317661214
3.8801	-77.03116	Buenaventura	CO	America/Bogota	3590433799317661990
-8.66667	-35.71667	Catende	BR	America/Recife	3590433799317662212
3.7278	98.6738	Labuhan Deli	ID	Asia/Jakarta	3590433799317662089
5.84752	-5.682	Lakota	CI	Africa/Abidjan	3590433799317661537
53.7446	-0.33525	Kingston upon Hull	GB	Europe/London	359043379931766817
-20.87306	-48.29694	Viradouro	BR	America/Sao_Paulo	359043379931766965
41.8542	-87.66561	Lower West Side	US	America/Chicago	8630330696303482253
55.63711	37.38115	Solntsevo	RU	Europe/Moscow	3590433799317661800
48.49144	9.20427	Reutlingen	DE	Europe/Berlin	359043379931766163
42.24113	-88.3162	Crystal Lake	US	America/Chicago	863033069630348453
50.75	2.25	Saint-Omer	FR	Europe/Paris	359043379931766569
51.30001	13.10984	Oschatz	DE	Europe/Berlin	8630330696303481057
17.94979	-94.91386	Acayucan	MX	America/Mexico_City	863033069630348727
45.79377	8.88104	Malnate	IT	Europe/Rome	3590433799317661404
12.74482	4.52514	Argungu	NG	Africa/Lagos	359043379931766106
30.46907	70.96699	Kot Addu	PK	Asia/Karachi	8630330696303481511
48.35149	8.96317	Hechingen	DE	Europe/Berlin	8630330696303481800
35.20889	111.73861	Changzhi	CN	Asia/Shanghai	863033069630348321
40.24537	-75.64963	Pottstown	US	America/New_York	3590433799317661784
11.8659	34.3869	Ar Ruseris	SD	Africa/Khartoum	3590433799317661958
37.49073	-2.77259	Baza	ES	Europe/Madrid	359043379931766270
-44.39672	171.25364	Timaru	NZ	Pacific/Auckland	359043379931766882
48.06919	11.37703	Gauting	DE	Europe/Berlin	863033069630348420
57.97472	33.2525	Valday	RU	Europe/Moscow	863033069630348420
11.12018	76.11996	Manjeri	IN	Asia/Kolkata	359043379931766478
-22.45667	-47.53028	Santa Gertrudes	BR	America/Sao_Paulo	359043379931766023
59.37722	28.19028	Narva	EE	Europe/Tallinn	8630330696303481073
53.5942	25.8191	Novogrudok	BY	Europe/Minsk	863033069630348883
50.23271	12.87117	Karlovy Vary	CZ	Europe/Prague	8630330696303481016
10.63504	-85.43772	Liberia	CR	America/Costa_Rica	8630330696303481156
55.64776	38.02486	Malakhovka	RU	Europe/Moscow	3590433799317662428
35.72917	10.58082	Msaken	TN	Africa/Tunis	863033069630348222
58.1908	40.17171	Danilov	RU	Europe/Moscow	863033069630348420
25.66795	85.83636	Dalsingh Sarai	IN	Asia/Kolkata	359043379931766635
34.61667	135.6	Yao	JP	Asia/Tokyo	359043379931766239
44.73941	-93.12577	Rosemount	US	America/Chicago	863033069630348081
35.48199	137.02166	Minokamo	JP	Asia/Tokyo	3590433799317661123
-25.54073	152.70493	Maryborough	AU	Australia/Brisbane	359043379931766445
2.41669	30.98551	Paidha	UG	Africa/Kampala	3590433799317661727
39.96348	-4.83076	Talavera de la Reina	ES	Europe/Madrid	3590433799317661339
36.6009	126.665	Hongseong	KR	Asia/Seoul	863033069630348842
-21.44345	-65.71875	Tupiza	BO	America/La_Paz	8630330696303481164
45.35	126.28333	Shuangcheng	CN	Asia/Shanghai	359043379931766437
32.52515	-93.75018	Shreveport	US	America/Chicago	8630330696303481628
51.40148	-1.32471	Newbury	GB	Europe/London	863033069630348701
48.43174	17.8031	Hlohovec	SK	Europe/Bratislava	359043379931766205
-3.14306	-58.44417	Itacoatiara	BR	America/Manaus	863033069630348545
51.35084	-1.99421	Devizes	GB	Europe/London	359043379931766411
12.12278	-61.62498	Grenville	GD	America/Grenada	3590433799317661339
-15.675	-38.94722	Canavieiras	BR	America/Bahia	8630330696303481974
47.05	15.46667	Sankt Peter	AT	Europe/Vienna	863033069630348032
-21.44345	-65.71875	Tupiza	BO	America/La_Paz	3590433799317661016
20.88197	85.83334	Bhuban	IN	Asia/Kolkata	863033069630348248
41.15376	-87.88754	Bourbonnais	US	America/Chicago	3590433799317661628
47.90771	106.88324	Ulan Bator	MN	Asia/Ulaanbaatar	3590433799317661180
10.12268	77.54372	Periyakulam	IN	Asia/Kolkata	359043379931766403
41.75338	-86.11084	Granger	US	America/Indiana/Indianapolis	8630330696303482014
42.62833	20.89389	Glogovac	XK	Europe/Belgrade	359043379931766122
30.35028	112.19028	Jingzhou	CN	Asia/Shanghai	359043379931766130
35.05266	-78.87836	Fayetteville	US	America/New_York	863033069630348784
33.3213	130.94098	Hita	JP	Asia/Tokyo	3590433799317661560
-27.4338	-65.61427	Aguilares	AR	America/Argentina/Tucuman	863033069630348818
21.01858	-101.2591	Guanajuato	MX	America/Mexico_City	8630330696303481883
35.6803	51.0193	Shahre Jadide Andisheh	IR	Asia/Tehran	359043379931766692
48.79325	2.29275	Fontenay-aux-Roses	FR	Europe/Paris	3590433799317661859
33.03699	-117.29198	Encinitas	US	America/Los_Angeles	8630330696303482485
-21.205	-41.88778	Itaperuna	BR	America/Sao_Paulo	3590433799317661479
31.20176	29.91582	Alexandria	EG	Africa/Cairo	3590433799317661776
26.18924	-98.15529	San Juan	US	America/Chicago	863033069630348875
-37.9	145.18333	Wheelers Hill	AU	Australia/Melbourne	3590433799317661081
11.50526	77.23826	Sathyamangalam	IN	Asia/Kolkata	359043379931766932
22.88783	84.13864	Jashpurnagar	IN	Asia/Kolkata	359043379931766478
-27.76952	30.79165	Vryheid	ZA	Africa/Johannesburg	359043379931766973
33.92866	-6.90656	Temara	MA	Africa/Casablanca	3590433799317661792
53.37596	51.3452	Otradnyy	RU	Europe/Samara	8630330696303482378
41.57439	24.71204	Smolyan	BG	Europe/Sofia	8630330696303481321
28.90054	-81.26367	Deltona	US	America/New_York	3590433799317661115
36.08497	9.37082	Siliana	TN	Africa/Tunis	359043379931766122
35.50056	117.63083	Pingyi	CN	Asia/Shanghai	359043379931766585
39.43534	-84.20299	Lebanon	US	America/New_York	8630330696303481552
52.61131	13.31783	Hermsdorf	DE	Europe/Berlin	863033069630348511
4.92675	6.26764	Yenagoa	NG	Africa/Lagos	8630330696303481651
30.16688	-96.39774	Brenham	US	America/Chicago	3590433799317661537
49.952431	15.268654	Kutná Hora	CZ	Europe/Prague	359043379931766643
58.23583	92.48278	Lesosibirsk	RU	Asia/Krasnoyarsk	8630330696303481370
53.53041	43.67663	Nizhniy Lomov	RU	Europe/Moscow	863033069630348917
19.30157	72.85107	Bhayandar	IN	Asia/Kolkata	8630330696303482113
19.04222	-98.11889	Casa Blanca	MX	America/Mexico_City	863033069630348677
-11.48472	-37.93278	Rio Real	BR	America/Bahia	8630330696303481339
3.11988	35.59642	Lodwar	KE	Africa/Nairobi	8630330696303481180
53.95278	32.86389	Roslavl‚Äô	RU	Europe/Moscow	359043379931766890
-1.6	103.61667	Jambi City	ID	Asia/Jakarta	8630330696303481073
36.65	138.31667	Suzaka	JP	Asia/Tokyo	3590433799317661453
25.6439	77.9129	Narwar	IN	Asia/Kolkata	3590433799317661636
53.77166	38.12408	Bogoroditsk	RU	Europe/Moscow	863033069630348834
40.66482	122.22833	Yingkou	CN	Asia/Shanghai	8630330696303481412
29.53885	-95.44744	Fresno	US	America/Chicago	863033069630348180
42.97086	-82.42491	Port Huron	US	America/Detroit	863033069630348552
35.72917	10.58082	Msaken	TN	Africa/Tunis	359043379931766064
55.64776	38.02486	Malakhovka	RU	Europe/Moscow	863033069630348917
50.88506	4.07601	Denderleeuw	BE	Europe/Brussels	3590433799317662220
27.09978	-82.45426	Venice	US	America/New_York	359043379931766445
53.43333	-7.95	Athlone	IE	Europe/Dublin	359043379931766312
30.81383	75.16878	Moga	IN	Asia/Kolkata	3590433799317661354
48.79325	2.29275	Fontenay-aux-Roses	FR	Europe/Paris	8630330696303481479
43.78956	7.60872	Ventimiglia	IT	Europe/Rome	3590433799317661735
41.82143	41.77921	Kobuleti	GE	Asia/Tbilisi	3590433799317661255
23.29549	113.82465	Licheng	CN	Asia/Shanghai	8630330696303481651
26.2173	-80.22588	North Lauderdale	US	America/New_York	863033069630348982
53.7446	-0.33525	Kingston upon Hull	GB	Europe/London	359043379931766841
23.02677	113.13148	Foshan	CN	Asia/Shanghai	3590433799317661511
31.82539	72.54064	Sillanwali	PK	Asia/Karachi	863033069630348297
50.75932	25.34244	Lutsk	UA	Europe/Kyiv	3590433799317661933
53.38333	-0.76667	Gainsborough	GB	Europe/London	863033069630348362
33.50921	-111.89903	Scottsdale	US	America/Phoenix	359043379931766817
36.82167	128.63083	Eisen	KR	Asia/Seoul	3590433799317661115
31.28092	74.85849	Patti	IN	Asia/Kolkata	8630330696303481230
54.39635	24.04142	Alytus	LT	Europe/Vilnius	8630330696303481412
36.20389	127.08472	Nonsan	KR	Asia/Seoul	8630330696303481628
45.43341	-73.86586	Beaconsfield	CA	America/Toronto	3590433799317662279
40.93333	73	Jalal-Abad	KG	Asia/Bishkek	359043379931766429
50.79205	-1.08593	Southsea	GB	Europe/London	8630330696303481289
26.9423	68.11759	Tharu Shah	PK	Asia/Karachi	3590433799317661339
36.76775	2.95924	Cheraga	DZ	Africa/Algiers	3590433799317662071
14.53767	46.83187	Ataq	YE	Asia/Aden	863033069630348842
11.8659	34.3869	Ar Ruseris	SD	Africa/Khartoum	863033069630348552
31.12406	-97.90308	Copperas Cove	US	America/Chicago	3590433799317661800
-4.26613	15.28318	Brazzaville	CG	Africa/Brazzaville	359043379931766452
22.75218	72.68533	Kheda	IN	Asia/Kolkata	8630330696303482238
3.8801	-77.03116	Buenaventura	CO	America/Bogota	863033069630348263
39.78504	-85.76942	Greenfield	US	America/Indiana/Indianapolis	8630330696303481081
31.71667	73.38333	Sangla Hill	PK	Asia/Karachi	8630330696303481917
52.59319	13.32127	Wittenau	DE	Europe/Berlin	359043379931766114
-26.93366	29.24152	Standerton	ZA	Africa/Johannesburg	3590433799317661453
42.58342	-71.8023	Fitchburg	US	America/New_York	359043379931766650
11.86064	9.0027	Gaya	NG	Africa/Lagos	3590433799317662220
29.22254	79.5286	Haldwani	IN	Asia/Kolkata	3590433799317661016
50.09019	8.4493	Hofheim am Taunus	DE	Europe/Berlin	863033069630348719
32.05971	34.8732	Ganei Tikva	IL	Asia/Jerusalem	3590433799317661271
48.49144	9.20427	Reutlingen	DE	Europe/Berlin	8630330696303481487
12.12278	-61.62498	Grenville	GD	America/Grenada	3590433799317661149
-32.05251	115.88782	Willetton	AU	Australia/Perth	8630330696303481271
29.21399	78.95693	Kashipur	IN	Asia/Kolkata	863033069630348743
-7.54972	110.71639	Ngemplak	ID	Asia/Jakarta	359043379931766411
12.25282	79.41727	Gingee	IN	Asia/Kolkata	8630330696303482071
15.79408	104.1451	Yasothon	TH	Asia/Bangkok	863033069630348867
50.23805	8.86704	Nidderau	DE	Europe/Berlin	3590433799317661370
-24.19436	29.00974	Mokopane	ZA	Africa/Johannesburg	863033069630348479
25.75728	75.37991	Deoli	IN	Asia/Kolkata	863033069630348271
49.593777	17.250879	Olomouc	CZ	Europe/Prague	863033069630348370
35.89972	14.51472	Valletta	MT	Europe/Malta	359043379931766700
50.7236	-3.52751	Exeter	GB	Europe/London	359043379931766296
12.74409	-8.07257	Kati	ML	Africa/Bamako	8630330696303482097
34.4833	136.84186	Toba	JP	Asia/Tokyo	359043379931766510
-26.22861	-52.67056	Pato Branco	BR	America/Sao_Paulo	3590433799317661040
55.82737	-4.0573	Viewpark	GB	Europe/London	8630330696303482246
42.50729	1.53414	les Escaldes	AD	Europe/Andorra	3590433799317661834
57.14369	-2.09814	Aberdeen	GB	Europe/London	3590433799317662360
46.75451	33.34864	Nova Kakhovka	UA	Europe/Kyiv	863033069630348834
23.73333	114.68333	Heyuan	CN	Asia/Shanghai	8630330696303482196
33.50921	-111.89903	Scottsdale	US	America/Phoenix	359043379931766122
27.92333	118.53333	Pucheng	CN	Asia/Shanghai	8630330696303481909
13.56667	-15.6	Farafenni	GM	Africa/Banjul	3590433799317661289
50.20528	19.27498	Jaworzno	PL	Europe/Warsaw	3590433799317661578
48.49144	9.20427	Reutlingen	DE	Europe/Berlin	3590433799317661552
47.90771	106.88324	Ulan Bator	MN	Asia/Ulaanbaatar	3590433799317661123
41.8542	-87.66561	Lower West Side	US	America/Chicago	359043379931766429
45.49428	-122.86705	Aloha	US	America/Los_Angeles	8630330696303481297
29.22254	79.5286	Haldwani	IN	Asia/Kolkata	863033069630348511
49.593777	17.250879	Olomouc	CZ	Europe/Prague	3590433799317661917
18.87813	72.93924	Uran	IN	Asia/Kolkata	3590433799317662329
48.25	16.4	Floridsdorf	AT	Europe/Vienna	8630330696303482329
14.0823	98.19151	Dawei	MM	Asia/Yangon	3590433799317662022
26.44931	91.61356	Rangia	IN	Asia/Kolkata	8630330696303482089
18.20854	-71.10077	Santa Cruz de Barahona	DO	America/Santo_Domingo	359043379931766478
52.66277	-2.01111	Great Wyrley	GB	Europe/London	8630330696303481289
13.70727	9.15013	Mirriah	NE	Africa/Niamey	3590433799317661651
45.78071	12.84052	Portogruaro	IT	Europe/Rome	863033069630348065
49.07866	30.96755	Zvenihorodka	UA	Europe/Kyiv	8630330696303481214
49.28669	1.00288	Elbeuf	FR	Europe/Paris	3590433799317661396
46.75451	33.34864	Nova Kakhovka	UA	Europe/Kyiv	863033069630348073
49.07866	30.96755	Zvenihorodka	UA	Europe/Kyiv	8630330696303481099
28.92694	78.23456	Bachhraon	IN	Asia/Kolkata	8630330696303482147
40.57788	-73.95958	Brighton Beach	US	America/New_York	8630330696303482436
51.12794	4.21372	Temse	BE	Europe/Brussels	3590433799317662071
13.65805	102.56365	Paoy Paet	KH	Asia/Phnom_Penh	3590433799317661552
30.5427	-97.54667	Hutto	US	America/Chicago	3590433799317661842
-33.59217	-70.6996	San Bernardo	CL	America/Santiago	863033069630348222
33.76446	-117.79394	North Tustin	US	America/Los_Angeles	863033069630348602
51.168	7.973	Finnentrop	DE	Europe/Berlin	8630330696303481164
51.62907	-0.74934	High Wycombe	GB	Europe/London	3590433799317661842
33.45122	-86.99666	Hueytown	US	America/Chicago	3590433799317662451
51.04962	12.1369	Zeitz	DE	Europe/Berlin	863033069630348321
37.31309	40.74357	Mardin	TR	Europe/Istanbul	863033069630348339
51.14942	15.00835	Zgorzelec	PL	Europe/Warsaw	359043379931766577
29.65163	-82.32483	Gainesville	US	America/New_York	8630330696303482311
20.88098	75.11937	Parola	IN	Asia/Kolkata	863033069630348040
55.39485	43.83992	Arzamas	RU	Europe/Moscow	3590433799317662196
53.49389	-1.29243	Mexborough	GB	Europe/London	3590433799317662261
41.75338	-86.11084	Granger	US	America/Indiana/Indianapolis	8630330696303482402
37.56667	140.11667	Inawashiro	JP	Asia/Tokyo	863033069630348578
38.54491	-121.74052	Davis	US	America/Los_Angeles	359043379931766445
51.35084	-1.99421	Devizes	GB	Europe/London	8630330696303481206
39.32288	-76.72803	Woodlawn	US	America/New_York	359043379931766809
38.54491	-121.74052	Davis	US	America/Los_Angeles	8630330696303481768
54.90083	38.07083	Stupino	RU	Europe/Moscow	359043379931766122
-21.41222	-42.19667	Miracema	BR	America/Sao_Paulo	359043379931766510
41.0051	-73.78458	Scarsdale	US	America/New_York	359043379931766676
-19.65	47.31667	Antanifotsy	MG	Indian/Antananarivo	8630330696303481768
6.9909	79.883	Hendala	LK	Asia/Colombo	8630330696303482469
45.39402	9.29109	San Giuliano Milanese	IT	Europe/Rome	3590433799317662386
-4.26613	15.28318	Brazzaville	CG	Africa/Brazzaville	3590433799317662089
51.955	5.22778	Culemborg	NL	Europe/Amsterdam	8630330696303482188
51.35084	-1.99421	Devizes	GB	Europe/London	3590433799317661396
41.6764	-91.58045	Coralville	US	America/Chicago	863033069630348834
27.55898	68.21204	Larkana	PK	Asia/Karachi	8630330696303482345
13.8196	100.04427	Nakhon Pathom	TH	Asia/Bangkok	3590433799317661487
11.84962	-86.19903	Jinotepe	NI	America/Managua	8630330696303481529
14.62578	121.12251	Antipolo	PH	Asia/Manila	8630330696303481727
-1.63333	13.58357	Franceville	GA	Africa/Libreville	359043379931766320
43.67681	4.63031	Arles	FR	Europe/Paris	359043379931766403
48.52961	12.16179	Landshut	DE	Europe/Berlin	359043379931766247
23.9028	89.11943	Kushtia	BD	Asia/Dhaka	3590433799317662386
42.06166	-1.60452	Tudela	ES	Europe/Madrid	359043379931766379
61.72744	17.10558	Hudiksvall	SE	Europe/Stockholm	863033069630348594
38.72706	-9.24671	Carnaxide	PT	Europe/Lisbon	3590433799317661297
42.24113	-88.3162	Crystal Lake	US	America/Chicago	359043379931766130
19.8173	-97.35992	Teziutlan	MX	America/Mexico_City	3590433799317662196
26.11527	86.59509	Supaul	IN	Asia/Kolkata	3590433799317661313
33.43443	-5.22126	Azrou	MA	Africa/Casablanca	8630330696303482162
3.3285	99.1625	Tebingtinggi	ID	Asia/Jakarta	3590433799317662097
53.37596	51.3452	Otradnyy	RU	Europe/Samara	8630330696303481222
13.48082	-86.58208	Somoto	NI	America/Managua	3590433799317661420
36.76639	3.47717	Boumerdas	DZ	Africa/Algiers	3590433799317661693
12.1277	78.15794	Dharmapuri	IN	Asia/Kolkata	8630330696303482386
33.95015	-118.03917	South Whittier	US	America/Los_Angeles	863033069630348941
37.51803	15.00913	Misterbianco	IT	Europe/Rome	3590433799317662352
53.59337	9.47629	Stade	DE	Europe/Berlin	863033069630348032
39.09112	-94.41551	Independence	US	America/Chicago	8630330696303481057
40.92298	14.30935	Afragola	IT	Europe/Rome	359043379931766163
25.80565	68.49143	Bhit Shah	PK	Asia/Karachi	359043379931766445
34.56861	105.89333	Beidao	CN	Asia/Shanghai	3590433799317661511
26.2173	-80.22588	North Lauderdale	US	America/New_York	359043379931766528
9.3337	122.8637	Santa Catalina	PH	Asia/Manila	863033069630348495
-10.33333	39.28333	Nyangao	TZ	Africa/Dar_es_Salaam	3590433799317661008
58.23583	92.48278	Lesosibirsk	RU	Asia/Krasnoyarsk	3590433799317662113
41.57721	-93.71133	West Des Moines	US	America/Chicago	8630330696303481321
57.47908	-4.22398	Inverness	GB	Europe/London	359043379931766148
43.1009	-75.23266	Utica	US	America/New_York	8630330696303482311
41.15376	-87.88754	Bourbonnais	US	America/Chicago	359043379931766908
47.90771	106.88324	Ulan Bator	MN	Asia/Ulaanbaatar	863033069630348297
41.09822	120.74792	Nanpiao	CN	Asia/Shanghai	3590433799317661073
51.40944	46.04833	Privolzhskiy	RU	Europe/Saratov	359043379931766486
42.24113	-88.3162	Crystal Lake	US	America/Chicago	3590433799317661651
46.32313	-0.45877	Niort	FR	Europe/Paris	863033069630348925
5.27247	-3.59625	Bonoua	CI	Africa/Abidjan	359043379931766049
51.20219	7.36027	Radevormwald	DE	Europe/Berlin	359043379931766411
50.20528	19.27498	Jaworzno	PL	Europe/Warsaw	8630330696303482196
32.57756	71.52847	Mianwali	PK	Asia/Karachi	8630330696303481818
50.26729	-119.27337	Vernon	CA	America/Vancouver	863033069630348602
22.4711	88.1453	Pujali	IN	Asia/Kolkata	8630330696303481354
43.61092	3.87723	Montpellier	FR	Europe/Paris	863033069630348404
5.20856	-74.73584	Honda	CO	America/Bogota	359043379931766874
40.1675	34.37389	Sungurlu	TR	Europe/Istanbul	359043379931766346
40.68066	-73.47429	Massapequa	US	America/New_York	3590433799317662071
-31.25033	-61.4867	Rafaela	AR	America/Argentina/Cordoba	3590433799317661487
36.20389	127.08472	Nonsan	KR	Asia/Seoul	863033069630348214
